{
  "type": "FeatureCollection",
  "features": [
    {
      "type": "Feature",
      "properties": {
        "ID": "-",
        "名称": "舟山市妇女儿童医院",
        "详情地址": "定海区昌国街道人民北路238号",
        "联系电话": "0580-2065211",
        "状态": "空闲",
        "类型": "收费",
        "时间": "全天",
        "marker-color": "#50C240",
        "marker-symbol": "cafe"
      },
      "geometry": {
        "type": "Point",
        "coordinates": [
          122.09935821539305,
          30.030999315300264
        ]
      }
    },
    {
      "type": "Feature",
      "properties": {
        "ID": "-",
        "名称": "舟山市中医院",
        "详情地址": "定海区新桥路355号院区内采样大棚",
        "联系电话": "0580-2615092",
        "状态": "空闲",
        "类型": "收费",
        "时间": "全天",
        "marker-color": "#50C240",
        "marker-symbol": "cafe"
      },
      "geometry": {
        "type": "Point",
        "coordinates": [
          122.12038972045934,
          30.018410633837455
        ]
      }
    },
    {
      "type": "Feature",
      "properties": {
        "ID": "-",
        "名称": "定海区中心医院",
        "详情地址": "定海区人民南路30号",
        "联系电话": "0580-2667581",
        "状态": "空闲",
        "类型": "收费",
        "时间": "全天",
        "marker-color": "#50C240",
        "marker-symbol": "cafe"
      },
      "geometry": {
        "type": "Point",
        "coordinates": [
          122.10322434848553,
          30.01540498071884
        ]
      }
    },
    {
      "type": "Feature",
      "properties": {
        "ID": "-",
        "名称": "定海区医疗集团金塘分院",
        "详情地址": "定海区金塘镇新道东路109号",
        "联系电话": "0580-8040092",
        "状态": "空闲",
        "类型": "免费",
        "时间": "8:00-21:00",
        "marker-color": "#50C240",
        "marker-symbol": "cafe"
      },
      "geometry": {
        "type": "Point",
        "coordinates": [
          121.87091754885635,
          30.011564264841
        ]
      }
    },
    {
      "type": "Feature",
      "properties": {
        "ID": "-",
        "名称": "定海区医疗集团白泉分院",
        "详情地址": "定海区白泉镇金湖路77号",
        "联系电话": "0580-8070315",
        "状态": "空闲",
        "类型": "免费",
        "时间": "8:00-21:00",
        "marker-color": "#50C240",
        "marker-symbol": "cafe"
      },
      "geometry": {
        "type": "Point",
        "coordinates": [
          122.15047624646587,
          30.06953872807721
        ]
      }
    },
    {
      "type": "Feature",
      "properties": {
        "ID": "-",
        "名称": "定海区医疗集团干览分院",
        "详情地址": "定海区干览镇天籁路100号/成人文化学校何家6号",
        "联系电话": "0580-8191122",
        "状态": "空闲",
        "类型": "免费",
        "时间": "1、17:00-21:00。2、8:00-17:00",
        "marker-color": "#50C240",
        "marker-symbol": "cafe"
      },
      "geometry": {
        "type": "Point",
        "coordinates": [
          122.13255505843148,
          30.101307109045113
        ]
      }
    },
    {
      "type": "Feature",
      "properties": {
        "ID": "-",
        "名称": "定海区医疗集团马岙分院",
        "详情地址": "定海区马岙街道市场路85号",
        "联系电话": "0580-8080150",
        "状态": "空闲",
        "类型": "免费",
        "时间": "8:00-21:00",
        "marker-color": "#50C240",
        "marker-symbol": "cafe"
      },
      "geometry": {
        "type": "Point",
        "coordinates": [
          122.09077688216566,
          30.12009342733776
        ]
      }
    },
    {
      "type": "Feature",
      "properties": {
        "ID": "-",
        "名称": "定海区医疗集团盐仓分院",
        "详情地址": "定海区盐仓兴舟大道400号",
        "联系电话": "0580-8890289",
        "状态": "空闲",
        "类型": "免费",
        "时间": "8:00-21:00",
        "marker-color": "#50C240",
        "marker-symbol": "cafe"
      },
      "geometry": {
        "type": "Point",
        "coordinates": [
          122.0588055778681,
          30.013124116856005
        ]
      }
    },
    {
      "type": "Feature",
      "properties": {
        "ID": "-",
        "名称": "定海区医疗集团双桥分院",
        "详情地址": "定海区双桥街道桥头施街39号",
        "联系电话": "0580-8235707",
        "状态": "空闲",
        "类型": "免费",
        "时间": "8:00-21:00",
        "marker-color": "#50C240",
        "marker-symbol": "cafe"
      },
      "geometry": {
        "type": "Point",
        "coordinates": [
          122.04588562162422,
          30.045824332396997
        ]
      }
    },
    {
      "type": "Feature",
      "properties": {
        "ID": "-",
        "名称": "定海区医疗集团岑港分院",
        "详情地址": "定海区岑港街道新司前街79号",
        "联系电话": "0580-8010838",
        "状态": "空闲",
        "类型": "免费",
        "时间": "8:00-21:00",
        "marker-color": "#50C240",
        "marker-symbol": "cafe"
      },
      "geometry": {
        "type": "Point",
        "coordinates": [
          121.99337701510753,
          30.075377491536752
        ]
      }
    },
    {
      "type": "Feature",
      "properties": {
        "ID": "-",
        "名称": "定海区医疗集团小沙分院",
        "详情地址": "定海区小沙街道庙桥街1号",
        "联系电话": "0580-8236908",
        "状态": "空闲",
        "类型": "免费",
        "时间": "8:00-21:00",
        "marker-color": "#50C240",
        "marker-symbol": "cafe"
      },
      "geometry": {
        "type": "Point",
        "coordinates": [
          122.0578847853211,
          30.11445453616616
        ]
      }
    },
    {
      "type": "Feature",
      "properties": {
        "ID": "-",
        "名称": "双桥爱嘉综合服务点",
        "详情地址": "定海区双桥街道舟山汽车城",
        "联系电话": "0580-8176561",
        "状态": "空闲",
        "类型": "免费",
        "时间": "9:00-11:00/14:00-16:00",
        "marker-color": "#50C240",
        "marker-symbol": "cafe"
      },
      "geometry": {
        "type": "Point",
        "coordinates": [
          122.0240480396103,
          30.02245882807715
        ]
      }
    },
    {
      "type": "Feature",
      "properties": {
        "ID": "-",
        "名称": "城北体育馆",
        "详情地址": "定海区文化路109号",
        "联系电话": "0580-2021112",
        "状态": "空闲",
        "类型": "免费",
        "时间": "8:30-11:00/14:00-16：30",
        "marker-color": "#50C240",
        "marker-symbol": "cafe"
      },
      "geometry": {
        "type": "Point",
        "coordinates": [
          122.10246786843666,
          30.040453582905318
        ]
      }
    },
    {
      "type": "Feature",
      "properties": {
        "ID": "-",
        "名称": "舟山市长途客运中心采样点",
        "详情地址": "定海区盐仓街道昌洲社区",
        "联系电话": "0580-2381010",
        "状态": "空闲",
        "类型": "免费",
        "时间": "8:00-22:30",
        "marker-color": "#50C240",
        "marker-symbol": "cafe"
      },
      "geometry": {
        "type": "Point",
        "coordinates": [
          122.05503430188566,
          30.022345826527996
        ]
      }
    },
    {
      "type": "Feature",
      "properties": {
        "ID": "-",
        "名称": "舟山市鸭蛋山轮渡码头采样点",
        "详情地址": "鸭蛋山轮渡码头旅客出入口",
        "联系电话": "13957237735",
        "状态": "空闲",
        "类型": "免费",
        "时间": "8:00-19:30",
        "marker-color": "#50C240",
        "marker-symbol": "cafe"
      },
      "geometry": {
        "type": "Point",
        "coordinates": [
          122.0547819326368,
          30.007996455738525
        ]
      }
    },
    {
      "type": "Feature",
      "properties": {
        "ID": "-",
        "名称": "定海客运站（汽车南站）采样点",
        "详情地址": "定海区环南街道定海港码头1号",
        "联系电话": "0580-2067011",
        "状态": "空闲",
        "类型": "免费",
        "时间": "8:30-11:00/14:00:16:30",
        "marker-color": "#50C240",
        "marker-symbol": "cafe"
      },
      "geometry": {
        "type": "Point",
        "coordinates": [
          122.1015409677307,
          30.00914674948158
        ]
      }
    },
    {
      "type": "Feature",
      "properties": {
        "ID": "-",
        "名称": "金塘卡点采样点",
        "详情地址": "金塘服务区",
        "联系电话": "17772767165",
        "状态": "空闲",
        "类型": "免费",
        "时间": "全天",
        "marker-color": "#50C240",
        "marker-symbol": "cafe"
      },
      "geometry": {
        "type": "Point",
        "coordinates": [
          121.90056069926888,
          30.05605008549666
        ]
      }
    },
    {
      "type": "Feature",
      "properties": {
        "ID": "-",
        "名称": "烟墩卡点采样点",
        "详情地址": "烟墩收费站",
        "联系电话": "13857238010",
        "状态": "空闲",
        "类型": "免费",
        "时间": "8:00-22:30",
        "marker-color": "#50C240",
        "marker-symbol": "cafe"
      },
      "geometry": {
        "type": "Point",
        "coordinates": [
          121.98500837521053,
          30.1147979018134
        ]
      }
    },
    {
      "type": "Feature",
      "properties": {
        "ID": "-",
        "名称": "舟山医院",
        "详情地址": "定海区千岛街道定沈路739号门诊大厅南门西侧",
        "联系电话": "0580-2558299/0580-2292846",
        "状态": "空闲",
        "类型": "收费",
        "时间": "全天",
        "marker-color": "#50C240",
        "marker-symbol": "cafe"
      },
      "geometry": {
        "type": "Point",
        "coordinates": [
          122.2081619325665,
          29.994405004705293
        ]
      }
    },
    {
      "type": "Feature",
      "properties": {
        "ID": "-",
        "名称": "舟山市第二人民医院",
        "详情地址": "定海区鼓吹山路29号门诊西北角",
        "联系电话": "0580-8966729",
        "状态": "空闲",
        "类型": "收费",
        "时间": "全天",
        "marker-color": "#50C240",
        "marker-symbol": "cafe"
      },
      "geometry": {
        "type": "Point",
        "coordinates": [
          122.21984275157023,
          30.011627236470208
        ]
      }
    },
    {
      "type": "Feature",
      "properties": {
        "ID": "-",
        "名称": "舟山医院新城分院",
        "详情地址": "定海区临城街道定沈路579号",
        "联系电话": "0580-2188666",
        "状态": "空闲",
        "类型": "收费",
        "时间": "8:30-10:30/14:00-15:30",
        "marker-color": "#50C240",
        "marker-symbol": "cafe"
      },
      "geometry": {
        "type": "Point",
        "coordinates": [
          122.19225009686251,
          29.9974638938647
        ]
      }
    },
    {
      "type": "Feature",
      "properties": {
        "ID": "-",
        "名称": "城北指挥部综合服务点",
        "详情地址": "定海区东西快速路北侧（舟山市第二人民医院对面）",
        "联系电话": "0580-2188666",
        "状态": "空闲",
        "类型": "免费",
        "时间": "8:00-11:00/13:30-16:30",
        "marker-color": "#50C240",
        "marker-symbol": "cafe"
      },
      "geometry": {
        "type": "Point",
        "coordinates": [
          122.22077193038477,
          30.013402191791553
        ]
      }
    },
    {
      "type": "Feature",
      "properties": {
        "ID": "-",
        "名称": "桥畔公园",
        "详情地址": "桥畔公园篮球场西北角综合管理房",
        "联系电话": "0580-2188666",
        "状态": "空闲",
        "类型": "免费",
        "时间": "8:00-11:30/13:30-16:30",
        "marker-color": "#50C240",
        "marker-symbol": "cafe"
      },
      "geometry": {
        "type": "Point",
        "coordinates": [
          122.21086818294808,
          29.976973958800357
        ]
      }
    },
    {
      "type": "Feature",
      "properties": {
        "ID": "-",
        "名称": "普陀医院",
        "详情地址": "普陀区东港街道文康街19号",
        "联系电话": "0580-3030880/13506800120",
        "状态": "空闲",
        "类型": "收费",
        "时间": "全天",
        "marker-color": "#50C240",
        "marker-symbol": "cafe"
      },
      "geometry": {
        "type": "Point",
        "coordinates": [ 122.32052138376199, 29.984033093631105 ]
      }
    },
    {
      "type": "Feature",
      "properties": {
        "ID": "-",
        "名称": "普陀医院六横分院",
        "详情地址": "普陀区六横镇六横路227号",
        "联系电话": "13567677299",
        "状态": "空闲",
        "类型": "收费",
        "时间": "全天",
        "marker-color": "#50C240",
        "marker-symbol": "cafe"
      },
      "geometry": {
        "type": "Point",
        "coordinates": [ 122.11575729153503, 29.745072735135526 ]
      }
    },
    {
      "type": "Feature",
      "properties": {
        "ID": "-",
        "名称": "普陀医院展茅分院",
        "详情地址": "普陀区展茅街道柴家沙滩路55号",
        "联系电话": "0580-6021288",
        "状态": "空闲",
        "类型": "收费",
        "时间": "8:00-21:00",
        "marker-color": "#50C240",
        "marker-symbol": "cafe"
      },
      "geometry": {
        "type": "Point",
        "coordinates": [ 122.27926818599155, 30.02980417299189 ]
      }
    },
    {
      "type": "Feature",
      "properties": {
        "ID": "-",
        "名称": "普陀医院东港分院",
        "详情地址": "普陀区东港街道勾山新育路56号",
        "联系电话": "0580-3091371",
        "状态": "空闲",
        "类型": "收费",
        "时间": "8:00-21:00",
        "marker-color": "#50C240",
        "marker-symbol": "cafe"
      },
      "geometry": {
        "type": "Point",
        "coordinates": [ 122.24620108076235, 29.980208782374888 ]
      }
    },
    {
      "type": "Feature",
      "properties": {
        "ID": "-",
        "名称": "普陀医院桃花分院",
        "详情地址": "普陀区桃花镇公前文卫路12号",
        "联系电话": "0580-6061419",
        "状态": "空闲",
        "类型": "收费",
        "时间": "全天",
        "marker-color": "#50C240",
        "marker-symbol": "cafe"
      },
      "geometry": {
        "type": "Point",
        "coordinates": [ 122.2737292491385, 29.833215848982423 ]
      }
    },
    {
      "type": "Feature",
      "properties": {
        "ID": "-",
        "名称": "普陀医院虾峙分院",
        "详情地址": "普陀区虾峙镇大岙村三区11号",
        "联系电话": "0580-6058990",
        "状态": "空闲",
        "类型": "收费",
        "时间": "全天",
        "marker-color": "#50C240",
        "marker-symbol": "cafe"
      },
      "geometry": {
        "type": "Point",
        "coordinates":  [122.23848871725748, 29.759593815199942 ]
      }
    },
    {
      "type": "Feature",
      "properties": {
        "ID": "-",
        "名称": "普陀医院东极分院",
        "详情地址": "普陀区东极镇庙子湖村",
        "联系电话": "0580-6048116",
        "状态": "空闲",
        "类型": "收费",
        "时间": "全天",
        "marker-color": "#50C240",
        "marker-symbol": "cafe"
      },
      "geometry": {
        "type": "Point",
        "coordinates":  [ 122.68509190494603, 30.195052162330235 ]
      }
    },
    {
      "type": "Feature",
      "properties": {
        "ID": "-",
        "名称": "普陀医院蚂蚁岛分院",
        "详情地址": "普陀区蚂蚁岛村穿山岙蚂蚁大道47-2号",
        "联系电话": "0580-6666948",
        "状态": "空闲",
        "类型": "收费",
        "时间": "全天",
        "marker-color": "#50C240",
        "marker-symbol": "cafe"
      },
      "geometry": {
        "type": "Point",
        "coordinates":  [ 122.25838492009684, 29.8661827435687 ]
      }
    },
    {
      "type": "Feature",
      "properties": {
        "ID": "-",
        "名称": "普陀医院登步岛分院",
        "详情地址": "普陀区登步永安村21号",
        "联系电话": "0580-6668197",
        "状态": "空闲",
        "类型": "收费",
        "时间": "全天",
        "marker-color": "#50C240",
        "marker-symbol": "cafe"
      },
      "geometry": {
        "type": "Point",
        "coordinates": [ 122.29721326891656, 29.880075403541717 ]
      }
    },
    {
      "type": "Feature",
      "properties": {
        "ID": "-",
        "名称": "格林豪泰综合服务点",
        "详情地址": "普陀东港街道宁兴街132-1号",
        "联系电话": "15157991776",
        "状态": "空闲",
        "类型": "免费",
        "时间": "全天",
        "marker-color": "#50C240",
        "marker-symbol": "cafe"
      },
      "geometry": {
        "type": "Point",
        "coordinates": [ 122.31751628895995, 29.97557488641177 ]
      }
    },
    {
      "type": "Feature",
      "properties": {
        "ID": "-",
        "名称": "普陀长途汽车客运站",
        "详情地址": "普陀区城北开发区学运路18号",
        "联系电话": "13764616200",
        "状态": "空闲",
        "类型": "免费",
        "时间": "8:00-22:00",
        "marker-color": "#50C240",
        "marker-symbol": "cafe"
      },
      "geometry": {
        "type": "Point",
        "coordinates":  [122.28200412144314, 29.967011001679822 ]
      }
    },
    {
      "type": "Feature",
      "properties": {
        "ID": "-",
        "名称": "虾峙轮渡站",
        "详情地址": "普陀区虾峙栅棚村",
        "联系电话": "0580-6058990",
        "状态": "空闲",
        "类型": "免费",
        "时间": "9:00-15:00",
        "marker-color": "#50C240",
        "marker-symbol": "cafe"
      },
      "geometry": {
        "type": "Point",
        "coordinates":  [ 122.2158825232857, 29.776636985980588 ]
      }
    },
    {
      "type": "Feature",
      "properties": {
        "ID": "-",
        "名称": "桃花展草屋码头",
        "详情地址": "普陀区桃花展草屋码头",
        "联系电话": "0580-6061419",
        "状态": "空闲",
        "类型": "免费",
        "时间": "9:50-16:00",
        "marker-color": "#50C240",
        "marker-symbol": "cafe"
      },
      "geometry": {
        "type": "Point",
        "coordinates": [ 122.28382077420126, 29.84352444018787 ]
      }
    },
    {
      "type": "Feature",
      "properties": {
        "ID": "-",
        "名称": "六横沙岙码头",
        "详情地址": "普陀区六横沙岙车客渡码头",
        "联系电话": "0580-6688300",
        "状态": "空闲",
        "类型": "免费",
        "时间": "8:00-17:00",
        "marker-color": "#50C240",
        "marker-symbol": "cafe"
      },
      "geometry": {
        "type": "Point",
        "coordinates": [ 122.06878257802332, 29.76872415500492 ]
      }
    },
    {
      "type": "Feature",
      "properties": {
        "ID": "-",
        "名称": "双桥卡口采样点",
        "详情地址": "普陀区双桥卡口内",
        "联系电话": "18058028515",
        "状态": "空闲",
        "类型": "免费",
        "时间": "全天",
        "marker-color": "#50C240",
        "marker-symbol": "cafe"
      },
      "geometry": {
        "type": "Point",
        "coordinates": [ 122.2364970835628, 30.000965449700566 ]
      }
    }
  ]
}
