{
  "type": "FeatureCollection",
  "features": [
    {
      "type": "Feature",
      "properties": {
        "ID": "-",
        "名称": "舟山市妇女儿童医院",
        "详情地址": "定海区昌国街道人民北路238号",
        "联系电话": "0580-2065211",
        "状态": "空闲",
        "类型": "收费",
        "时间": "全天",
        "marker-color": "#50C240",
        "marker-symbol": "cafe"
      },
      "geometry": {
        "type": "Point",
        "coordinates": [
          122.09935821539305,
          30.030999315300264
        ]
      }
    },
    {
      "type": "Feature",
      "properties": {
        "ID": "-",
        "名称": "舟山市中医院",
        "详情地址": "定海区新桥路355号院区内采样大棚",
        "联系电话": "0580-2615092",
        "状态": "空闲",
        "类型": "收费",
        "时间": "全天",
        "marker-color": "#50C240",
        "marker-symbol": "cafe"
      },
      "geometry": {
        "type": "Point",
        "coordinates": [
          122.12038972045934,
          30.018410633837455
        ]
      }
    },
    {
      "type": "Feature",
      "properties": {
        "ID": "-",
        "名称": "定海区中心医院",
        "详情地址": "定海区人民南路30号",
        "联系电话": "0580-2667581",
        "状态": "空闲",
        "类型": "收费",
        "时间": "全天",
        "marker-color": "#50C240",
        "marker-symbol": "cafe"
      },
      "geometry": {
        "type": "Point",
        "coordinates": [
          122.10322434848553,
          30.01540498071884
        ]
      }
    },
    {
      "type": "Feature",
      "properties": {
        "ID": "-",
        "名称": "定海区医疗集团金塘分院",
        "详情地址": "定海区金塘镇新道东路109号",
        "联系电话": "0580-8040092",
        "状态": "空闲",
        "类型": "免费",
        "时间": "8:00-21:00",
        "marker-color": "#50C240",
        "marker-symbol": "cafe"
      },
      "geometry": {
        "type": "Point",
        "coordinates": [
          121.87091754885635,
          30.011564264841
        ]
      }
    },
    {
      "type": "Feature",
      "properties": {
        "ID": "-",
        "名称": "定海区医疗集团白泉分院",
        "详情地址": "定海区白泉镇金湖路77号",
        "联系电话": "0580-8070315",
        "状态": "空闲",
        "类型": "免费",
        "时间": "8:00-21:00",
        "marker-color": "#50C240",
        "marker-symbol": "cafe"
      },
      "geometry": {
        "type": "Point",
        "coordinates": [
          122.15047624646587,
          30.06953872807721
        ]
      }
    }
  ]
}
