{
  "type": "FeatureCollection",
  "features": [
    {
      "type": "Feature",
      "properties": {
        "ID": "14395",
        "名称": "旧县街道社区卫生服务中心核酸采样点",
        "详情地址": "桐庐县旧县街道社区卫生服务中心发热诊室",
        "联系电话": "0571-64641010",
        "状态": 3,
        "类型": "基层",
        "marker-color": "#e2e2e2",
        "marker-symbol": "cafe"
      },
      "geometry": {
        "type": "Point",
        "coordinates": [
          119.6676259168441,
          29.80346031311675
        ]
      }
    },
    {
      "type": "Feature",
      "properties": {
        "ID": "13120",
        "名称": "杭州市上城区九堡街道社区卫生服务中心",
        "详情地址": "杭州市上城区杭海路1183-8号",
        "联系电话": "0571-81338072",
        "状态": 3,
        "类型": "基层",
        "marker-color": "#e2e2e2",
        "marker-symbol": "cafe"
      },
      "geometry": {
        "type": "Point",
        "coordinates": [
          120.27295168986633,
          30.299220607643978
        ]
      }
    },
    {
      "type": "Feature",
      "properties": {
        "ID": "15398",
        "名称": "青年路社区",
        "详情地址": "西湖大道196号（三元坊停车场）",
        "联系电话": "0571-87911070",
        "状态": 3,
        "类型": "社区",
        "marker-color": "#e2e2e2",
        "marker-symbol": "cafe"
      },
      "geometry": {
        "type": "Point",
        "coordinates": [
          120.16290265886225,
          30.240616176035903
        ]
      }
    },
    {
      "type": "Feature",
      "properties": {
        "ID": "15391",
        "名称": "劳动路社区孔庙采样点",
        "详情地址": "劳动路人行道(孔庙旁)",
        "联系电话": "0571-87552560",
        "状态": 3,
        "类型": "社区",
        "marker-color": "#e2e2e2",
        "marker-symbol": "cafe"
      },
      "geometry": {
        "type": "Point",
        "coordinates": [
          120.16236274702851,
          30.241527901227073
        ]
      }
    },
    {
      "type": "Feature",
      "properties": {
        "ID": "15385",
        "名称": "清河坊社区高银街东太平巷采样点",
        "详情地址": "高银街东太平巷口人行道",
        "联系电话": "0571-87808256",
        "状态": 3,
        "类型": "社区",
        "marker-color": "#e2e2e2",
        "marker-symbol": "cafe"
      },
      "geometry": {
        "type": "Point",
        "coordinates": [
          120.16822838412757,
          30.240672882859872
        ]
      }
    },
    {
      "type": "Feature",
      "properties": {
        "ID": "15377",
        "名称": "马市街98号",
        "详情地址": "马市街98号（世纪联华门口）",
        "联系电话": "87211599",
        "状态": 3,
        "类型": "社区",
        "marker-color": "#e2e2e2",
        "marker-symbol": "cafe"
      },
      "geometry": {
        "type": "Point",
        "coordinates": [
          120.16983168637094,
          30.248131377810523
        ]
      }
    },
    {
      "type": "Feature",
      "properties": {
        "ID": "15372",
        "名称": "万安桥地铁B口",
        "详情地址": "万安桥地铁B口附近",
        "联系电话": "87089890",
        "状态": 3,
        "类型": "社区",
        "marker-color": "#e2e2e2",
        "marker-symbol": "cafe"
      },
      "geometry": {
        "type": "Point",
        "coordinates": [
          120.18087129562558,
          30.254465785392075
        ]
      }
    },
    {
      "type": "Feature",
      "properties": {
        "ID": "15368",
        "名称": "皮市巷小区",
        "详情地址": "皮市巷35号",
        "联系电话": "87044618",
        "状态": 3,
        "类型": "社区",
        "marker-color": "#e2e2e2",
        "marker-symbol": "cafe"
      },
      "geometry": {
        "type": "Point",
        "coordinates": [
          120.16843174980389,
          30.246134365234763
        ]
      }
    },
    {
      "type": "Feature",
      "properties": {
        "ID": "15364",
        "名称": "南班巷小区",
        "详情地址": "南班巷小区2幢旁小公园",
        "联系电话": "87807113",
        "状态": 3,
        "类型": "社区",
        "marker-color": "#e2e2e2",
        "marker-symbol": "cafe"
      },
      "geometry": {
        "type": "Point",
        "coordinates": [
          120.17082690001278,
          30.242942407805774
        ]
      }
    },
    {
      "type": "Feature",
      "properties": {
        "ID": "15362",
        "名称": "长明寺巷",
        "详情地址": "清泰街170号",
        "联系电话": "86067015",
        "状态": 3,
        "类型": "社区",
        "marker-color": "#e2e2e2",
        "marker-symbol": "cafe"
      },
      "geometry": {
        "type": "Point",
        "coordinates": [
          120.17599114078484,
          30.241867669581186
        ]
      }
    },
    {
      "type": "Feature",
      "properties": {
        "ID": "15340",
        "名称": "紫台公寓",
        "详情地址": "建福街120号",
        "联系电话": "0571-86056711",
        "状态": 3,
        "类型": "社区",
        "marker-color": "#e2e2e2",
        "marker-symbol": "cafe"
      },
      "geometry": {
        "type": "Point",
        "coordinates": [
          120.24804379896446,
          30.301321551665854
        ]
      }
    },
    {
      "type": "Feature",
      "properties": {
        "ID": "15334",
        "名称": "普德人家",
        "详情地址": "九州路",
        "联系电话": "0571-86013317",
        "状态": 3,
        "类型": "社区",
        "marker-color": "#e2e2e2",
        "marker-symbol": "cafe"
      },
      "geometry": {
        "type": "Point",
        "coordinates": [
          120.24028677168809,
          30.307603276129008
        ]
      }
    },
    {
      "type": "Feature",
      "properties": {
        "ID": "15331",
        "名称": "九堡街道杨公一区检测点",
        "详情地址": "九堡街道杨公一区过渡房",
        "联系电话": "86902132",
        "状态": 3,
        "类型": "社区",
        "marker-color": "#e2e2e2",
        "marker-symbol": "cafe"
      },
      "geometry": {
        "type": "Point",
        "coordinates": [
          120.2913015812076,
          30.29873237148181
        ]
      }
    },
    {
      "type": "Feature",
      "properties": {
        "ID": "15327",
        "名称": "九堡街道蚕桑社区检测点",
        "详情地址": "九堡街道蚕桑社区蚕桑西苑北门商铺通道",
        "联系电话": "89701230",
        "状态": 3,
        "类型": "社区",
        "marker-color": "#e2e2e2",
        "marker-symbol": "cafe"
      },
      "geometry": {
        "type": "Point",
        "coordinates": [
          120.26138176799368,
          30.31507525028136
        ]
      }
    },
    {
      "type": "Feature",
      "properties": {
        "ID": "15308",
        "名称": "九堡街道魅力城社区检测点",
        "详情地址": "九堡街道魅力城社区魅城巷",
        "联系电话": "86432021",
        "状态": 3,
        "类型": "社区",
        "marker-color": "#e2e2e2",
        "marker-symbol": "cafe"
      },
      "geometry": {
        "type": "Point",
        "coordinates": [
          120.25709009643396,
          30.320011458414555
        ]
      }
    },
    {
      "type": "Feature",
      "properties": {
        "ID": "15305",
        "名称": "九堡街道金泊林小区检测点",
        "详情地址": "九堡街道金泊林小区大门口",
        "联系电话": "87387973",
        "状态": 3,
        "类型": "社区",
        "marker-color": "#e2e2e2",
        "marker-symbol": "cafe"
      },
      "geometry": {
        "type": "Point",
        "coordinates": [
          120.28343059583192,
          30.302791818935116
        ]
      }
    },
    {
      "type": "Feature",
      "properties": {
        "ID": "15304",
        "名称": "九堡街道蓝桥社区检测点",
        "详情地址": "九堡街道蓝桥社区金堡街287号商铺",
        "联系电话": "86908100",
        "状态": 3,
        "类型": "社区",
        "marker-color": "#e2e2e2",
        "marker-symbol": "cafe"
      },
      "geometry": {
        "type": "Point",
        "coordinates": [
          120.27717939240758,
          30.30300273785484
        ]
      }
    },
    {
      "type": "Feature",
      "properties": {
        "ID": "15299",
        "名称": "九堡街道金雅苑小区检测点",
        "详情地址": "九堡街道金雅苑小区18幢北侧通道",
        "联系电话": "86908503",
        "状态": 3,
        "类型": "社区",
        "marker-color": "#e2e2e2",
        "marker-symbol": "cafe"
      },
      "geometry": {
        "type": "Point",
        "coordinates": [
          120.28107809990122,
          30.307360232088815
        ]
      }
    },
    {
      "type": "Feature",
      "properties": {
        "ID": "15297",
        "名称": "九堡街道江涛社区检测点",
        "详情地址": "九堡街道江涛社区通盛路21号综合体广场",
        "联系电话": "86621547",
        "状态": 3,
        "类型": "社区",
        "marker-color": "#e2e2e2",
        "marker-symbol": "cafe"
      },
      "geometry": {
        "type": "Point",
        "coordinates": [
          120.28445539411933,
          30.326483175887798
        ]
      }
    },
    {
      "type": "Feature",
      "properties": {
        "ID": "15296",
        "名称": "九堡街道蓝桥景苑检测点",
        "详情地址": "九堡街道蓝桥景苑南北主通道",
        "联系电话": "86904297",
        "状态": 3,
        "类型": "社区",
        "marker-color": "#e2e2e2",
        "marker-symbol": "cafe"
      },
      "geometry": {
        "type": "Point",
        "coordinates": [
          120.27850479511532,
          30.30731276260275
        ]
      }
    },
    {
      "type": "Feature",
      "properties": {
        "ID": "15293",
        "名称": "钱塘智慧城绿谷创智中心检测点",
        "详情地址": "钱塘智慧城绿谷创智中心地下层广场",
        "联系电话": "89800725",
        "状态": 3,
        "类型": "企事业单位",
        "marker-color": "#e2e2e2",
        "marker-symbol": "cafe"
      },
      "geometry": {
        "type": "Point",
        "coordinates": [
          120.25169990188469,
          30.312780997779804
        ]
      }
    },
    {
      "type": "Feature",
      "properties": {
        "ID": "15288",
        "名称": "置顶时代",
        "详情地址": "置顶时代",
        "联系电话": "88117033",
        "状态": 3,
        "类型": "重点公共场所",
        "marker-color": "#e2e2e2",
        "marker-symbol": "cafe"
      },
      "geometry": {
        "type": "Point",
        "coordinates": [
          120.22436695717455,
          30.345165374998427
        ]
      }
    },
    {
      "type": "Feature",
      "properties": {
        "ID": "15272",
        "名称": "景园南苑",
        "详情地址": "小区大门广场",
        "联系电话": "88117033",
        "状态": 3,
        "类型": "社区",
        "marker-color": "#e2e2e2",
        "marker-symbol": "cafe"
      },
      "geometry": {
        "type": "Point",
        "coordinates": [
          120.22755409029685,
          30.343338429124255
        ]
      }
    },
    {
      "type": "Feature",
      "properties": {
        "ID": "15270",
        "名称": "后珠家苑",
        "详情地址": "小区大门广场",
        "联系电话": "88117033",
        "状态": 3,
        "类型": "社区",
        "marker-color": "#e2e2e2",
        "marker-symbol": "cafe"
      },
      "geometry": {
        "type": "Point",
        "coordinates": [
          120.22963723974763,
          30.34842578619533
        ]
      }
    },
    {
      "type": "Feature",
      "properties": {
        "ID": "15262",
        "名称": "邻里人家东苑",
        "详情地址": "小区大门广场",
        "联系电话": "88117033",
        "状态": 3,
        "类型": "社区",
        "marker-color": "#e2e2e2",
        "marker-symbol": "cafe"
      },
      "geometry": {
        "type": "Point",
        "coordinates": [
          120.22614718779305,
          30.353009416365225
        ]
      }
    },
    {
      "type": "Feature",
      "properties": {
        "ID": "15260",
        "名称": "长睦家苑",
        "详情地址": "小区大门广场",
        "联系电话": "88117033",
        "状态": 3,
        "类型": "社区",
        "marker-color": "#e2e2e2",
        "marker-symbol": "cafe"
      },
      "geometry": {
        "type": "Point",
        "coordinates": [
          120.22746255309063,
          30.350318722364037
        ]
      }
    },
    {
      "type": "Feature",
      "properties": {
        "ID": "15252",
        "名称": "联合新苑",
        "详情地址": "小区大门广场",
        "联系电话": "88117033",
        "状态": 3,
        "类型": "社区",
        "marker-color": "#e2e2e2",
        "marker-symbol": "cafe"
      },
      "geometry": {
        "type": "Point",
        "coordinates": [
          120.23359538447795,
          30.34606123664046
        ]
      }
    },
    {
      "type": "Feature",
      "properties": {
        "ID": "15249",
        "名称": "美都雅苑",
        "详情地址": "小区大门广场",
        "联系电话": "88117033",
        "状态": 3,
        "类型": "社区",
        "marker-color": "#e2e2e2",
        "marker-symbol": "cafe"
      },
      "geometry": {
        "type": "Point",
        "coordinates": [
          120.23557927838282,
          30.350363918324472
        ]
      }
    },
    {
      "type": "Feature",
      "properties": {
        "ID": "15248",
        "名称": "北城铭苑",
        "详情地址": "小区大门广场",
        "联系电话": "88117033",
        "状态": 3,
        "类型": "社区",
        "marker-color": "#e2e2e2",
        "marker-symbol": "cafe"
      },
      "geometry": {
        "type": "Point",
        "coordinates": [
          120.22628668622,
          30.33909523206794
        ]
      }
    },
    {
      "type": "Feature",
      "properties": {
        "ID": "15231",
        "名称": "紫花埠社区4",
        "详情地址": "紫花苑小区1号门",
        "联系电话": "0571-86580206",
        "状态": 3,
        "类型": "其他",
        "marker-color": "#e2e2e2",
        "marker-symbol": "cafe"
      },
      "geometry": {
        "type": "Point",
        "coordinates": [
          120.16560065222421,
          30.2067386805015
        ]
      }
    },
    {
      "type": "Feature",
      "properties": {
        "ID": "15229",
        "名称": "海月桥社区1",
        "详情地址": "十亩田公园中心花园",
        "联系电话": "0571-86087653",
        "状态": 3,
        "类型": "其他",
        "marker-color": "#e2e2e2",
        "marker-symbol": "cafe"
      },
      "geometry": {
        "type": "Point",
        "coordinates": [
          120.15917114988137,
          30.206877711184895
        ]
      }
    },
    {
      "type": "Feature",
      "properties": {
        "ID": "15222",
        "名称": "复兴街社区4",
        "详情地址": "复兴南苑三号门公园",
        "联系电话": "0571-86782373",
        "状态": 3,
        "类型": "其他",
        "marker-color": "#e2e2e2",
        "marker-symbol": "cafe"
      },
      "geometry": {
        "type": "Point",
        "coordinates": [
          120.16592410754659,
          30.209233417130108
        ]
      }
    },
    {
      "type": "Feature",
      "properties": {
        "ID": "15216",
        "名称": "水澄桥社区2",
        "详情地址": "市民林（南复路与之江路交叉口）",
        "联系电话": "0571-86583483",
        "状态": 3,
        "类型": "其他",
        "marker-color": "#e2e2e2",
        "marker-symbol": "cafe"
      },
      "geometry": {
        "type": "Point",
        "coordinates": [
          120.15809681767686,
          30.203336183824064
        ]
      }
    },
    {
      "type": "Feature",
      "properties": {
        "ID": "15210",
        "名称": "美政桥社区3",
        "详情地址": "美政桥社区门口",
        "联系电话": "0571-86087549",
        "状态": 3,
        "类型": "其他",
        "marker-color": "#e2e2e2",
        "marker-symbol": "cafe"
      },
      "geometry": {
        "type": "Point",
        "coordinates": [
          120.1691467946617,
          30.211882286939684
        ]
      }
    },
    {
      "type": "Feature",
      "properties": {
        "ID": "15209",
        "名称": "美政桥社区4",
        "详情地址": "民航小区",
        "联系电话": "0571-86087549",
        "状态": 3,
        "类型": "其他",
        "marker-color": "#e2e2e2",
        "marker-symbol": "cafe"
      },
      "geometry": {
        "type": "Point",
        "coordinates": [
          120.17096957662713,
          30.210457360719396
        ]
      }
    },
    {
      "type": "Feature",
      "properties": {
        "ID": "15207",
        "名称": "馒头山社区2",
        "详情地址": "万松岭路53号（万松岭路凤凰山脚路交叉口）",
        "联系电话": "0571-86583035",
        "状态": 3,
        "类型": "其他",
        "marker-color": "#e2e2e2",
        "marker-symbol": "cafe"
      },
      "geometry": {
        "type": "Point",
        "coordinates": [
          120.16840870644288,
          30.22579513988767
        ]
      }
    },
    {
      "type": "Feature",
      "properties": {
        "ID": "15202",
        "名称": "玉皇山社区2",
        "详情地址": "复兴城市家园6幢康养驿站门口",
        "联系电话": "0571-86087492",
        "状态": 3,
        "类型": "其他",
        "marker-color": "#e2e2e2",
        "marker-symbol": "cafe"
      },
      "geometry": {
        "type": "Point",
        "coordinates": [
          120.14938165003115,
          30.201752371283124
        ]
      }
    },
    {
      "type": "Feature",
      "properties": {
        "ID": "16989",
        "名称": "西穆坞2号点",
        "详情地址": "黄龙和山西门广场",
        "联系电话": null,
        "状态": 1,
        "类型": null,
        "marker-color": "#F3AE1A",
        "marker-symbol": "cafe"
      },
      "geometry": {
        "type": "Point",
        "coordinates": [
          120.05824034583493,
          30.23658610251941
        ]
      }
    },
    {
      "type": "Feature",
      "properties": {
        "ID": "16987",
        "名称": "杨家牌楼1号点",
        "详情地址": "杨家牌楼社区西路停车场",
        "联系电话": null,
        "状态": 1,
        "类型": null,
        "marker-color": "#F3AE1A",
        "marker-symbol": "cafe"
      },
      "geometry": {
        "type": "Point",
        "coordinates": [
          120.06248182925874,
          30.240427098904195
        ]
      }
    },
    {
      "type": "Feature",
      "properties": {
        "ID": "16981",
        "名称": "杭州市金都中心幼儿园",
        "详情地址": "古墩路415号",
        "联系电话": "88920310",
        "状态": 1,
        "类型": null,
        "marker-color": "#F3AE1A",
        "marker-symbol": "cafe"
      },
      "geometry": {
        "type": "Point",
        "coordinates": [
          120.09075549224177,
          30.27922755989784
        ]
      }
    },
    {
      "type": "Feature",
      "properties": {
        "ID": "16973",
        "名称": "文苑幼儿园登新园区",
        "详情地址": "登云圩路62号",
        "联系电话": "89715653",
        "状态": 1,
        "类型": null,
        "marker-color": "#F3AE1A",
        "marker-symbol": "cafe"
      },
      "geometry": {
        "type": "Point",
        "coordinates": [
          120.08165919935068,
          30.273275510059236
        ]
      }
    },
    {
      "type": "Feature",
      "properties": {
        "ID": "16968",
        "名称": "西湖区紫荆幼儿园",
        "详情地址": "紫荆花路290号",
        "联系电话": "13336064795；13429689459",
        "状态": 1,
        "类型": null,
        "marker-color": "#F3AE1A",
        "marker-symbol": "cafe"
      },
      "geometry": {
        "type": "Point",
        "coordinates": [
          120.08675904402799,
          30.28443754742181
        ]
      }
    },
    {
      "type": "Feature",
      "properties": {
        "ID": "16966",
        "名称": "杭州市星洲小学",
        "详情地址": "紫荆花路288号",
        "联系电话": null,
        "状态": 1,
        "类型": null,
        "marker-color": "#F3AE1A",
        "marker-symbol": "cafe"
      },
      "geometry": {
        "type": "Point",
        "coordinates": [
          120.0868196727692,
          30.283461836929092
        ]
      }
    },
    {
      "type": "Feature",
      "properties": {
        "ID": "16959",
        "名称": "五联西苑五号点",
        "详情地址": "五联西苑329号（中间）",
        "联系电话": "88973100",
        "状态": 1,
        "类型": null,
        "marker-color": "#F3AE1A",
        "marker-symbol": "cafe"
      },
      "geometry": {
        "type": "Point",
        "coordinates": [
          120.08936978073334,
          30.27156656484512
        ]
      }
    },
    {
      "type": "Feature",
      "properties": {
        "ID": "16957",
        "名称": "五联西苑三号点",
        "详情地址": "五联西苑1号(东侧）",
        "联系电话": "88973100",
        "状态": 2,
        "类型": null,
        "marker-color": "#50C240",
        "marker-symbol": "cafe"
      },
      "geometry": {
        "type": "Point",
        "coordinates": [
          120.08993308170753,
          30.27002141392873
        ]
      }
    },
    {
      "type": "Feature",
      "properties": {
        "ID": "16956",
        "名称": "五联西苑二号点",
        "详情地址": "五联西苑1号(中侧）",
        "联系电话": "88973100",
        "状态": 2,
        "类型": null,
        "marker-color": "#50C240",
        "marker-symbol": "cafe"
      },
      "geometry": {
        "type": "Point",
        "coordinates": [
          120.08936978073334,
          30.27156656484512
        ]
      }
    },
    {
      "type": "Feature",
      "properties": {
        "ID": "16952",
        "名称": "五联东苑二号点",
        "详情地址": "五联东苑19号（东侧）",
        "联系电话": "88973100",
        "状态": 2,
        "类型": null,
        "marker-color": "#50C240",
        "marker-symbol": "cafe"
      },
      "geometry": {
        "type": "Point",
        "coordinates": [
          120.09886909148204,
          30.270191813406957
        ]
      }
    },
    {
      "type": "Feature",
      "properties": {
        "ID": "16951",
        "名称": "五联东苑一号点",
        "详情地址": "五联东苑19号（西侧）",
        "联系电话": "88973100",
        "状态": 1,
        "类型": null,
        "marker-color": "#F3AE1A",
        "marker-symbol": "cafe"
      },
      "geometry": {
        "type": "Point",
        "coordinates": [
          120.09795918113099,
          30.27168654329405
        ]
      }
    },
    {
      "type": "Feature",
      "properties": {
        "ID": "16943",
        "名称": "骆家庄西苑一区二号点",
        "详情地址": "一区158号北区域",
        "联系电话": "88851200",
        "状态": 2,
        "类型": null,
        "marker-color": "#50C240",
        "marker-symbol": "cafe"
      },
      "geometry": {
        "type": "Point",
        "coordinates": [
          120.08760013228918,
          30.279385903499186
        ]
      }
    },
    {
      "type": "Feature",
      "properties": {
        "ID": "16939",
        "名称": "登新公寓9幢南2号点",
        "详情地址": "文二西路659号东侧",
        "联系电话": "86822372",
        "状态": 2,
        "类型": null,
        "marker-color": "#50C240",
        "marker-symbol": "cafe"
      },
      "geometry": {
        "type": "Point",
        "coordinates": [
          120.08283478018399,
          30.27225027869421
        ]
      }
    },
    {
      "type": "Feature",
      "properties": {
        "ID": "16934",
        "名称": "嘉南公寓",
        "详情地址": "文一西路378号嘉南公寓",
        "联系电话": "81022792",
        "状态": 2,
        "类型": null,
        "marker-color": "#50C240",
        "marker-symbol": "cafe"
      },
      "geometry": {
        "type": "Point",
        "coordinates": [
          120.08721105688788,
          30.281757982130365
        ]
      }
    },
    {
      "type": "Feature",
      "properties": {
        "ID": "16933",
        "名称": "阳光疫苗点3号点",
        "详情地址": "文一西路460号东侧",
        "联系电话": "81022792",
        "状态": 1,
        "类型": null,
        "marker-color": "#F3AE1A",
        "marker-symbol": "cafe"
      },
      "geometry": {
        "type": "Point",
        "coordinates": [
          120.08461633201969,
          30.28141361926814
        ]
      }
    },
    {
      "type": "Feature",
      "properties": {
        "ID": "16922",
        "名称": "桂花城回廊2号点",
        "详情地址": "文二西路456号桂花城中",
        "联系电话": "88478629",
        "状态": 2,
        "类型": null,
        "marker-color": "#50C240",
        "marker-symbol": "cafe"
      },
      "geometry": {
        "type": "Point",
        "coordinates": [
          120.08906406414773,
          30.276765406465877
        ]
      }
    },
    {
      "type": "Feature",
      "properties": {
        "ID": "16919",
        "名称": "香樟公寓会馆一楼2号点",
        "详情地址": "文三西路360号香樟公寓46幢东铡",
        "联系电话": "88269329",
        "状态": 2,
        "类型": null,
        "marker-color": "#50C240",
        "marker-symbol": "cafe"
      },
      "geometry": {
        "type": "Point",
        "coordinates": [
          120.10046226291152,
          30.273001122367987
        ]
      }
    },
    {
      "type": "Feature",
      "properties": {
        "ID": "16911",
        "名称": "文溪鼎园南公园1号点",
        "详情地址": "文一西路100-1号西侧",
        "联系电话": "88854720",
        "状态": 2,
        "类型": null,
        "marker-color": "#50C240",
        "marker-symbol": "cafe"
      },
      "geometry": {
        "type": "Point",
        "coordinates": [
          120.09903652843991,
          30.282850428145103
        ]
      }
    },
    {
      "type": "Feature",
      "properties": {
        "ID": "16900",
        "名称": "紫金小区西门外人行道2号点",
        "详情地址": "古墩路242号南侧",
        "联系电话": "88974463",
        "状态": 1,
        "类型": null,
        "marker-color": "#F3AE1A",
        "marker-symbol": "cafe"
      },
      "geometry": {
        "type": "Point",
        "coordinates": [
          120.09413332794391,
          30.272051750942836
        ]
      }
    },
    {
      "type": "Feature",
      "properties": {
        "ID": "16893",
        "名称": "香港城西门1号点",
        "详情地址": "古墩路154-1旁（中国农业银行杭三路支行南侧）",
        "联系电话": "88107230",
        "状态": 2,
        "类型": null,
        "marker-color": "#50C240",
        "marker-symbol": "cafe"
      },
      "geometry": {
        "type": "Point",
        "coordinates": [
          120.09463955109625,
          30.269219605874166
        ]
      }
    },
    {
      "type": "Feature",
      "properties": {
        "ID": "16891",
        "名称": "紫金庭园北门1号点",
        "详情地址": "紫庭北弄（梅林苑9幢3号商铺前）",
        "联系电话": "88107230",
        "状态": 2,
        "类型": null,
        "marker-color": "#50C240",
        "marker-symbol": "cafe"
      },
      "geometry": {
        "type": "Point",
        "coordinates": [
          120.08575152927023,
          30.26631474087553
        ]
      }
    },
    {
      "type": "Feature",
      "properties": {
        "ID": "16886",
        "名称": "颐景园",
        "详情地址": "古墩路383号颐景园湖心长廊",
        "联系电话": "88302527",
        "状态": 1,
        "类型": null,
        "marker-color": "#F3AE1A",
        "marker-symbol": "cafe"
      },
      "geometry": {
        "type": "Point",
        "coordinates": [
          120.0917567342028,
          30.27401555010376
        ]
      }
    },
    {
      "type": "Feature",
      "properties": {
        "ID": "16885",
        "名称": "府新花园2号点",
        "详情地址": "文二西路589号府新花园中心广场南侧",
        "联系电话": "88302527",
        "状态": 1,
        "类型": null,
        "marker-color": "#F3AE1A",
        "marker-symbol": "cafe"
      },
      "geometry": {
        "type": "Point",
        "coordinates": [
          120.08545603576293,
          30.273130719524566
        ]
      }
    },
    {
      "type": "Feature",
      "properties": {
        "ID": "16878",
        "名称": "翠苑街道扩面核酸点",
        "详情地址": "黄龙云起小区对面广场",
        "联系电话": null,
        "状态": 0,
        "类型": null,
        "marker-color": "#C24740",
        "marker-symbol": "cafe"
      },
      "geometry": {
        "type": "Point",
        "coordinates": [
          120.11897453024336,
          30.27376587373211
        ]
      }
    },
    {
      "type": "Feature",
      "properties": {
        "ID": "16876",
        "名称": "西湖国际科技大厦",
        "详情地址": "西湖国际内广场",
        "联系电话": null,
        "状态": 0,
        "类型": null,
        "marker-color": "#C24740",
        "marker-symbol": "cafe"
      },
      "geometry": {
        "type": "Point",
        "coordinates": [
          120.1142586546637,
          30.275127580928757
        ]
      }
    },
    {
      "type": "Feature",
      "properties": {
        "ID": "16872",
        "名称": "古荡湾社区",
        "详情地址": "枫华府第小区南门",
        "联系电话": "88864983",
        "状态": 0,
        "类型": null,
        "marker-color": "#C24740",
        "marker-symbol": "cafe"
      },
      "geometry": {
        "type": "Point",
        "coordinates": [
          120.11890867191332,
          30.271743263184348
        ]
      }
    },
    {
      "type": "Feature",
      "properties": {
        "ID": "16868",
        "名称": "花园社区",
        "详情地址": "行知巷底",
        "联系电话": "88073429",
        "状态": 1,
        "类型": null,
        "marker-color": "#F3AE1A",
        "marker-symbol": "cafe"
      },
      "geometry": {
        "type": "Point",
        "coordinates": [
          120.12707925612487,
          30.28141000269722
        ]
      }
    },
    {
      "type": "Feature",
      "properties": {
        "ID": "16863",
        "名称": "宋江苑社区",
        "详情地址": "小区户外小广场（老街坊对面）",
        "联系电话": "86755227",
        "状态": 1,
        "类型": null,
        "marker-color": "#F3AE1A",
        "marker-symbol": "cafe"
      },
      "geometry": {
        "type": "Point",
        "coordinates": [
          120.11567559994435,
          30.285405815291526
        ]
      }
    },
    {
      "type": "Feature",
      "properties": {
        "ID": "16862",
        "名称": "翠苑五区社区",
        "详情地址": "翠苑五区社区11幢南侧小公园",
        "联系电话": "88864812",
        "状态": 1,
        "类型": null,
        "marker-color": "#F3AE1A",
        "marker-symbol": "cafe"
      },
      "geometry": {
        "type": "Point",
        "coordinates": [
          120.11548532448374,
          30.276656264302932
        ]
      }
    },
    {
      "type": "Feature",
      "properties": {
        "ID": "16857",
        "名称": "翠苑三区",
        "详情地址": "翠苑三区44幢东侧",
        "联系电话": "87156775",
        "状态": 1,
        "类型": null,
        "marker-color": "#F3AE1A",
        "marker-symbol": "cafe"
      },
      "geometry": {
        "type": "Point",
        "coordinates": [
          120.11305466809358,
          30.28436482360616
        ]
      }
    },
    {
      "type": "Feature",
      "properties": {
        "ID": "16850",
        "名称": "转塘街道社区卫生服务中心",
        "详情地址": "庙山东村6号",
        "联系电话": "87091223",
        "状态": 1,
        "类型": null,
        "marker-color": "#F3AE1A",
        "marker-symbol": "cafe"
      },
      "geometry": {
        "type": "Point",
        "coordinates": [
          120.07406358181977,
          30.15817933101682
        ]
      }
    },
    {
      "type": "Feature",
      "properties": {
        "ID": "16847",
        "名称": "杭州枫上医院",
        "详情地址": "转塘街道象山363号",
        "联系电话": "0517-86892525",
        "状态": 2,
        "类型": null,
        "marker-color": "#50C240",
        "marker-symbol": "cafe"
      },
      "geometry": {
        "type": "Point",
        "coordinates": [
          120.06460980048226,
          30.14701001913458
        ]
      }
    },
    {
      "type": "Feature",
      "properties": {
        "ID": "16837",
        "名称": "梦湖社区办公室",
        "详情地址": "之江路186号梦湖社区门口",
        "联系电话": "86653111；86608193；86653559",
        "状态": 2,
        "类型": null,
        "marker-color": "#50C240",
        "marker-symbol": "cafe"
      },
      "geometry": {
        "type": "Point",
        "coordinates": [
          120.06762217880998,
          30.1640196108263
        ]
      }
    },
    {
      "type": "Feature",
      "properties": {
        "ID": "16836",
        "名称": "云溪第二幼儿园",
        "详情地址": "云溪新语一期西侧幼儿园内",
        "联系电话": "86653111；86608193；86653559",
        "状态": 2,
        "类型": null,
        "marker-color": "#50C240",
        "marker-symbol": "cafe"
      },
      "geometry": {
        "type": "Point",
        "coordinates": [
          120.08992889230849,
          30.157137311359996
        ]
      }
    },
    {
      "type": "Feature",
      "properties": {
        "ID": "16834",
        "名称": "武林街道竹竿巷社区",
        "详情地址": "庆春路182号金融大厦通道",
        "联系电话": "0571-87017321",
        "状态": 1,
        "类型": "社区",
        "marker-color": "#F3AE1A",
        "marker-symbol": "cafe"
      },
      "geometry": {
        "type": "Point",
        "coordinates": [
          120.16131576803703,
          30.25331928733283
        ]
      }
    },
    {
      "type": "Feature",
      "properties": {
        "ID": "16829",
        "名称": "天水街道党群服务中心",
        "详情地址": "天水巷7号",
        "联系电话": "0571-85154705",
        "状态": 1,
        "类型": "社区",
        "marker-color": "#F3AE1A",
        "marker-symbol": "cafe"
      },
      "geometry": {
        "type": "Point",
        "coordinates": [
          120.16269872365105,
          30.265790426004276
        ]
      }
    },
    {
      "type": "Feature",
      "properties": {
        "ID": "16827",
        "名称": "天水街道灯芯巷社区卫生院门口",
        "详情地址": "天水街道灯芯巷14-6",
        "联系电话": "0571-85170160",
        "状态": 1,
        "类型": "社区",
        "marker-color": "#F3AE1A",
        "marker-symbol": "cafe"
      },
      "geometry": {
        "type": "Point",
        "coordinates": [
          120.15588776394364,
          30.25933713943429
        ]
      }
    },
    {
      "type": "Feature",
      "properties": {
        "ID": "16825",
        "名称": "潮鸣街道小天竺社区",
        "详情地址": "刀茅巷农贸市场北侧归德弄出入口",
        "联系电话": "87295886",
        "状态": 1,
        "类型": "社区",
        "marker-color": "#F3AE1A",
        "marker-symbol": "cafe"
      },
      "geometry": {
        "type": "Point",
        "coordinates": [
          120.1779367037227,
          30.255766752752795
        ]
      }
    },
    {
      "type": "Feature",
      "properties": {
        "ID": "16823",
        "名称": "潮鸣街道艮园社区",
        "详情地址": "刀茅巷出入口（艮园8幢旁）",
        "联系电话": "85282009",
        "状态": 1,
        "类型": "社区",
        "marker-color": "#F3AE1A",
        "marker-symbol": "cafe"
      },
      "geometry": {
        "type": "Point",
        "coordinates": [
          120.17667427769855,
          30.263384321550514
        ]
      }
    },
    {
      "type": "Feature",
      "properties": {
        "ID": "16821",
        "名称": "潮鸣街道刀茅巷社区",
        "详情地址": "刀茅巷140号",
        "联系电话": "87291856",
        "状态": 1,
        "类型": "社区",
        "marker-color": "#F3AE1A",
        "marker-symbol": "cafe"
      },
      "geometry": {
        "type": "Point",
        "coordinates": [
          120.17980347330153,
          30.262173673458875
        ]
      }
    },
    {
      "type": "Feature",
      "properties": {
        "ID": "16809",
        "名称": "华星社区4-1",
        "详情地址": "嘉绿文苑（西园）6幢前空地",
        "联系电话": "88801155；88052880",
        "状态": 1,
        "类型": null,
        "marker-color": "#F3AE1A",
        "marker-symbol": "cafe"
      },
      "geometry": {
        "type": "Point",
        "coordinates": [
          120.10741027152277,
          30.270798326116214
        ]
      }
    },
    {
      "type": "Feature",
      "properties": {
        "ID": "16808",
        "名称": "华星社区3-1",
        "详情地址": "嘉绿青苑2幢架空层",
        "联系电话": "88801155；88052880",
        "状态": 1,
        "类型": null,
        "marker-color": "#F3AE1A",
        "marker-symbol": "cafe"
      },
      "geometry": {
        "type": "Point",
        "coordinates": [
          120.10741027152277,
          30.270798326116214
        ]
      }
    },
    {
      "type": "Feature",
      "properties": {
        "ID": "16807",
        "名称": "华星社区2",
        "详情地址": "嘉绿北苑9幢8幢之间空地",
        "联系电话": "88086677；88052880",
        "状态": 2,
        "类型": null,
        "marker-color": "#50C240",
        "marker-symbol": "cafe"
      },
      "geometry": {
        "type": "Point",
        "coordinates": [
          120.10741027152277,
          30.270798326116214
        ]
      }
    },
    {
      "type": "Feature",
      "properties": {
        "ID": "16802",
        "名称": "益乐社区1",
        "详情地址": "世纪新城9幢和11幢中间空地",
        "联系电话": "89931193；89931195",
        "状态": 1,
        "类型": null,
        "marker-color": "#F3AE1A",
        "marker-symbol": "cafe"
      },
      "geometry": {
        "type": "Point",
        "coordinates": [
          120.11188462848456,
          30.278835132874406
        ]
      }
    },
    {
      "type": "Feature",
      "properties": {
        "ID": "16781",
        "名称": "古南社区1",
        "详情地址": "古南社区科普公园（古西11幢北侧）",
        "联系电话": "87970735",
        "状态": 1,
        "类型": null,
        "marker-color": "#F3AE1A",
        "marker-symbol": "cafe"
      },
      "geometry": {
        "type": "Point",
        "coordinates": [
          120.11046027853739,
          30.26628971087184
        ]
      }
    },
    {
      "type": "Feature",
      "properties": {
        "ID": "16773",
        "名称": "杭州瑞人堂医药连锁有限公司紫金文苑健康药房",
        "详情地址": "杭州市西湖区余杭塘路772号",
        "联系电话": "86058780",
        "状态": 1,
        "类型": null,
        "marker-color": "#F3AE1A",
        "marker-symbol": "cafe"
      },
      "geometry": {
        "type": "Point",
        "coordinates": [
          120.09353132532462,
          30.288943305447734
        ]
      }
    },
    {
      "type": "Feature",
      "properties": {
        "ID": "16771",
        "名称": "草鞋桥采样点3",
        "详情地址": "草鞋桥弄1号",
        "联系电话": null,
        "状态": 1,
        "类型": null,
        "marker-color": "#F3AE1A",
        "marker-symbol": "cafe"
      },
      "geometry": {
        "type": "Point",
        "coordinates": [
          120.0531700254029,
          30.32506425393004
        ]
      }
    },
    {
      "type": "Feature",
      "properties": {
        "ID": "16768",
        "名称": "红星美凯龙采采样点3",
        "详情地址": "古墩路888号",
        "联系电话": "88954056",
        "状态": 1,
        "类型": null,
        "marker-color": "#F3AE1A",
        "marker-symbol": "cafe"
      },
      "geometry": {
        "type": "Point",
        "coordinates": [
          120.09018283892829,
          30.30945787647223
        ]
      }
    },
    {
      "type": "Feature",
      "properties": {
        "ID": "16762",
        "名称": "华联村采样点3",
        "详情地址": "华联公园羽毛球场",
        "联系电话": "88960708",
        "状态": 1,
        "类型": null,
        "marker-color": "#F3AE1A",
        "marker-symbol": "cafe"
      },
      "geometry": {
        "type": "Point",
        "coordinates": [
          120.02585648335564,
          30.340258002943607
        ]
      }
    },
    {
      "type": "Feature",
      "properties": {
        "ID": "16758",
        "名称": "绕城村采样点3",
        "详情地址": "庙后头公园凉亭",
        "联系电话": "88806440",
        "状态": 1,
        "类型": null,
        "marker-color": "#F3AE1A",
        "marker-symbol": "cafe"
      },
      "geometry": {
        "type": "Point",
        "coordinates": [
          120.04789174757033,
          30.33200808125698
        ]
      }
    },
    {
      "type": "Feature",
      "properties": {
        "ID": "16757",
        "名称": "绕城村采样点1",
        "详情地址": "江家坝50号文化礼堂停车场",
        "联系电话": "88806440",
        "状态": 2,
        "类型": null,
        "marker-color": "#50C240",
        "marker-symbol": "cafe"
      },
      "geometry": {
        "type": "Point",
        "coordinates": [
          120.04789174757033,
          30.33200808125698
        ]
      }
    },
    {
      "type": "Feature",
      "properties": {
        "ID": "16747",
        "名称": "三坝社区采样点4",
        "详情地址": "同人广场AB幢中间通道",
        "联系电话": "86608986",
        "状态": 1,
        "类型": null,
        "marker-color": "#F3AE1A",
        "marker-symbol": "cafe"
      },
      "geometry": {
        "type": "Point",
        "coordinates": [
          120.0941083121723,
          30.300021268575907
        ]
      }
    },
    {
      "type": "Feature",
      "properties": {
        "ID": "16739",
        "名称": "五里塘社区采样点3",
        "详情地址": "秀月家园南区中心花坛",
        "联系电话": "88954363；81958957",
        "状态": 1,
        "类型": null,
        "marker-color": "#F3AE1A",
        "marker-symbol": "cafe"
      },
      "geometry": {
        "type": "Point",
        "coordinates": [
          120.08048551651056,
          30.30930275393947
        ]
      }
    },
    {
      "type": "Feature",
      "properties": {
        "ID": "16738",
        "名称": "五里塘社区采样点2",
        "详情地址": "紫金上城2号楼通道",
        "联系电话": "88954363；81958957",
        "状态": 1,
        "类型": null,
        "marker-color": "#F3AE1A",
        "marker-symbol": "cafe"
      },
      "geometry": {
        "type": "Point",
        "coordinates": [
          120.1911892689354,
          30.22114041666679
        ]
      }
    },
    {
      "type": "Feature",
      "properties": {
        "ID": "16736",
        "名称": "杨家桥社区采样点3",
        "详情地址": "明慧苑5幢前面",
        "联系电话": "88295175",
        "状态": 2,
        "类型": null,
        "marker-color": "#50C240",
        "marker-symbol": "cafe"
      },
      "geometry": {
        "type": "Point",
        "coordinates": [
          120.07111553209732,
          30.32064449992544
        ]
      }
    },
    {
      "type": "Feature",
      "properties": {
        "ID": "16733",
        "名称": "荡王头社区采样点2",
        "详情地址": "吉园街36号",
        "联系电话": "88980690",
        "状态": 1,
        "类型": null,
        "marker-color": "#F3AE1A",
        "marker-symbol": "cafe"
      },
      "geometry": {
        "type": "Point",
        "coordinates": [
          120.07021047122423,
          30.32486149351477
        ]
      }
    },
    {
      "type": "Feature",
      "properties": {
        "ID": "16729",
        "名称": "陆板桥社区采样点2",
        "详情地址": "灯彩街567号华彩国际",
        "联系电话": "88953516",
        "状态": 1,
        "类型": null,
        "marker-color": "#F3AE1A",
        "marker-symbol": "cafe"
      },
      "geometry": {
        "type": "Point",
        "coordinates": [
          120.06301686377972,
          30.31637725029692
        ]
      }
    },
    {
      "type": "Feature",
      "properties": {
        "ID": "16727",
        "名称": "罗家村社区采样点2",
        "详情地址": "紫宣路158号2号楼",
        "联系电话": "87708199",
        "状态": 1,
        "类型": null,
        "marker-color": "#F3AE1A",
        "marker-symbol": "cafe"
      },
      "geometry": {
        "type": "Point",
        "coordinates": [
          120.06947093336649,
          30.311908671170922
        ]
      }
    },
    {
      "type": "Feature",
      "properties": {
        "ID": "16726",
        "名称": "罗家村社区采样点1",
        "详情地址": "同仁家园西区同仁汇商场广场",
        "联系电话": "88968728",
        "状态": 2,
        "类型": null,
        "marker-color": "#50C240",
        "marker-symbol": "cafe"
      },
      "geometry": {
        "type": "Point",
        "coordinates": [
          120.07139590923012,
          30.320506158128023
        ]
      }
    },
    {
      "type": "Feature",
      "properties": {
        "ID": "16720",
        "名称": "之江诚品18幢南面空地",
        "详情地址": "之江诚品小区内",
        "联系电话": null,
        "状态": 2,
        "类型": null,
        "marker-color": "#50C240",
        "marker-symbol": "cafe"
      },
      "geometry": {
        "type": "Point",
        "coordinates": [
          120.06158481844199,
          30.140000371840415
        ]
      }
    },
    {
      "type": "Feature",
      "properties": {
        "ID": "16717",
        "名称": "恒大澜玉水晶熙园",
        "详情地址": "澜玉弄81号",
        "联系电话": null,
        "状态": 1,
        "类型": null,
        "marker-color": "#F3AE1A",
        "marker-symbol": "cafe"
      },
      "geometry": {
        "type": "Point",
        "coordinates": [
          120.10055237428301,
          30.1526215365096
        ]
      }
    },
    {
      "type": "Feature",
      "properties": {
        "ID": "16716",
        "名称": "五云社区大楼",
        "详情地址": "五云西路一号",
        "联系电话": null,
        "状态": 2,
        "类型": null,
        "marker-color": "#50C240",
        "marker-symbol": "cafe"
      },
      "geometry": {
        "type": "Point",
        "coordinates": [
          120.10178940842603,
          30.17692254471453
        ]
      }
    },
    {
      "type": "Feature",
      "properties": {
        "ID": "16710",
        "名称": "大清社区核酸采样点",
        "详情地址": "邻里中心",
        "联系电话": "86570604",
        "状态": 2,
        "类型": null,
        "marker-color": "#50C240",
        "marker-symbol": "cafe"
      },
      "geometry": {
        "type": "Point",
        "coordinates": [
          120.06431773873116,
          30.20047448352342
        ]
      }
    },
    {
      "type": "Feature",
      "properties": {
        "ID": "16709",
        "名称": "何家村核酸釆样点",
        "详情地址": "何家村文化礼堂停车场",
        "联系电话": "87421175；15268561844",
        "状态": 1,
        "类型": null,
        "marker-color": "#F3AE1A",
        "marker-symbol": "cafe"
      },
      "geometry": {
        "type": "Point",
        "coordinates": [
          120.0318477017887,
          30.177070671032155
        ]
      }
    },
    {
      "type": "Feature",
      "properties": {
        "ID": "16703",
        "名称": "转塘家园北区26幢东侧",
        "详情地址": "转塘家园北区26幢东侧",
        "联系电话": null,
        "状态": 2,
        "类型": null,
        "marker-color": "#50C240",
        "marker-symbol": "cafe"
      },
      "geometry": {
        "type": "Point",
        "coordinates": [
          120.08351893819719,
          30.159175654442084
        ]
      }
    },
    {
      "type": "Feature",
      "properties": {
        "ID": "16698",
        "名称": "横桥沈合苑篮球场",
        "详情地址": "横桥沈合苑小区篮球场",
        "联系电话": null,
        "状态": 2,
        "类型": null,
        "marker-color": "#50C240",
        "marker-symbol": "cafe"
      },
      "geometry": {
        "type": "Point",
        "coordinates": [
          120.06132083719065,
          30.15336706349777
        ]
      }
    },
    {
      "type": "Feature",
      "properties": {
        "ID": "16696",
        "名称": "方家畈社区篮球场",
        "详情地址": "方家畈社区办公楼南侧篮球场",
        "联系电话": "87091081",
        "状态": 2,
        "类型": null,
        "marker-color": "#50C240",
        "marker-symbol": "cafe"
      },
      "geometry": {
        "type": "Point",
        "coordinates": [
          120.06635045675706,
          30.15739242470902
        ]
      }
    },
    {
      "type": "Feature",
      "properties": {
        "ID": "16695",
        "名称": "定北家园三区",
        "详情地址": "定北家园三区4-9幢中间健身场地",
        "联系电话": "87093881",
        "状态": 2,
        "类型": null,
        "marker-color": "#50C240",
        "marker-symbol": "cafe"
      },
      "geometry": {
        "type": "Point",
        "coordinates": [
          120.05826514583619,
          30.15199461775951
        ]
      }
    },
    {
      "type": "Feature",
      "properties": {
        "ID": "16681",
        "名称": "之江家园二区南门",
        "详情地址": "之江家园二区",
        "联系电话": null,
        "状态": 1,
        "类型": null,
        "marker-color": "#F3AE1A",
        "marker-symbol": "cafe"
      },
      "geometry": {
        "type": "Point",
        "coordinates": [
          120.07870796302903,
          30.14436068497168
        ]
      }
    },
    {
      "type": "Feature",
      "properties": {
        "ID": "16676",
        "名称": "回龙雅苑10-2",
        "详情地址": "回龙雅苑10幢边（北）",
        "联系电话": null,
        "状态": 1,
        "类型": null,
        "marker-color": "#F3AE1A",
        "marker-symbol": "cafe"
      },
      "geometry": {
        "type": "Point",
        "coordinates": [
          120.09830337481156,
          30.11698957902035
        ]
      }
    },
    {
      "type": "Feature",
      "properties": {
        "ID": "16671",
        "名称": "奥莱金街",
        "详情地址": "奥莱金街北面广场",
        "联系电话": null,
        "状态": 1,
        "类型": null,
        "marker-color": "#F3AE1A",
        "marker-symbol": "cafe"
      },
      "geometry": {
        "type": "Point",
        "coordinates": [
          120.07257649119511,
          30.140992761110873
        ]
      }
    },
    {
      "type": "Feature",
      "properties": {
        "ID": "16657",
        "名称": "西溪银泰城",
        "详情地址": "双龙路88号1号楼AB连廊（迪卡侬与商场中间）",
        "联系电话": "0571-87092011",
        "状态": 1,
        "类型": null,
        "marker-color": "#F3AE1A",
        "marker-symbol": "cafe"
      },
      "geometry": {
        "type": "Point",
        "coordinates": [
          120.06910057912621,
          30.287720280866395
        ]
      }
    },
    {
      "type": "Feature",
      "properties": {
        "ID": "16649",
        "名称": "西溪诚品商务中心",
        "详情地址": "紫霞街155号西溪诚品内中庭",
        "联系电话": "0571-87163620",
        "状态": 1,
        "类型": null,
        "marker-color": "#F3AE1A",
        "marker-symbol": "cafe"
      },
      "geometry": {
        "type": "Point",
        "coordinates": [
          120.0605826248192,
          30.283016162240816
        ]
      }
    },
    {
      "type": "Feature",
      "properties": {
        "ID": "16647",
        "名称": "西溪谷国际商务中心",
        "详情地址": "紫霞街80号西溪谷G座北边消防通道",
        "联系电话": "0571-89807771",
        "状态": 1,
        "类型": null,
        "marker-color": "#F3AE1A",
        "marker-symbol": "cafe"
      },
      "geometry": {
        "type": "Point",
        "coordinates": [
          120.06732930684635,
          30.285317436055976
        ]
      }
    },
    {
      "type": "Feature",
      "properties": {
        "ID": "16640",
        "名称": "诚园社区卫生服务站采样点",
        "详情地址": "杭州市西湖区文一西路830号",
        "联系电话": "0571-86955012",
        "状态": 1,
        "类型": null,
        "marker-color": "#F3AE1A",
        "marker-symbol": "cafe"
      },
      "geometry": {
        "type": "Point",
        "coordinates": [
          120.06238608115898,
          30.28208866904514
        ]
      }
    },
    {
      "type": "Feature",
      "properties": {
        "ID": "16631",
        "名称": "广发银行门口",
        "详情地址": "体育场路634号",
        "联系电话": "85112634",
        "状态": 1,
        "类型": null,
        "marker-color": "#F3AE1A",
        "marker-symbol": "cafe"
      },
      "geometry": {
        "type": "Point",
        "coordinates": [
          120.1410693514572,
          30.261481398129188
        ]
      }
    },
    {
      "type": "Feature",
      "properties": {
        "ID": "16629",
        "名称": "向阳弄",
        "详情地址": "向阳弄",
        "联系电话": "85214125",
        "状态": 1,
        "类型": null,
        "marker-color": "#F3AE1A",
        "marker-symbol": "cafe"
      },
      "geometry": {
        "type": "Point",
        "coordinates": [
          120.14462620209333,
          30.26327261571915
        ]
      }
    },
    {
      "type": "Feature",
      "properties": {
        "ID": "16623",
        "名称": "灵光菜馆停车场",
        "详情地址": "灵光菜馆停车场",
        "联系电话": null,
        "状态": 1,
        "类型": "社区",
        "marker-color": "#F3AE1A",
        "marker-symbol": "cafe"
      },
      "geometry": {
        "type": "Point",
        "coordinates": [
          120.12239160020894,
          30.246039085272436
        ]
      }
    },
    {
      "type": "Feature",
      "properties": {
        "ID": "16622",
        "名称": "西湖街道卫生院后停车场",
        "详情地址": "西湖街道卫生院后停车场",
        "联系电话": null,
        "状态": 1,
        "类型": "社区",
        "marker-color": "#F3AE1A",
        "marker-symbol": "cafe"
      },
      "geometry": {
        "type": "Point",
        "coordinates": [
          120.10499385646065,
          30.23930688345964
        ]
      }
    },
    {
      "type": "Feature",
      "properties": {
        "ID": "16618",
        "名称": "杨梅岭村龙发公司门口",
        "详情地址": "杨梅岭村龙发公司门口",
        "联系电话": null,
        "状态": 2,
        "类型": "社区",
        "marker-color": "#50C240",
        "marker-symbol": "cafe"
      },
      "geometry": {
        "type": "Point",
        "coordinates": [
          120.11199286390602,
          30.208992784554752
        ]
      }
    },
    {
      "type": "Feature",
      "properties": {
        "ID": "16617",
        "名称": "翁家山村委门口",
        "详情地址": "翁家山村委门口",
        "联系电话": null,
        "状态": 2,
        "类型": "社区",
        "marker-color": "#50C240",
        "marker-symbol": "cafe"
      },
      "geometry": {
        "type": "Point",
        "coordinates": [
          120.10995003772895,
          30.213072625975403
        ]
      }
    },
    {
      "type": "Feature",
      "properties": {
        "ID": "16611",
        "名称": "杭州白塔公园",
        "详情地址": "杭州白塔公园",
        "联系电话": null,
        "状态": 2,
        "类型": "重点公共场所",
        "marker-color": "#50C240",
        "marker-symbol": "cafe"
      },
      "geometry": {
        "type": "Point",
        "coordinates": [
          120.13341797263931,
          30.192586275790962
        ]
      }
    },
    {
      "type": "Feature",
      "properties": {
        "ID": "16606",
        "名称": "新湾卫生服务中心",
        "详情地址": "新湾街道新湾大道",
        "联系电话": null,
        "状态": 1,
        "类型": "基层医疗机构",
        "marker-color": "#F3AE1A",
        "marker-symbol": "cafe"
      },
      "geometry": {
        "type": "Point",
        "coordinates": [
          120.57607336630397,
          30.300750374085172
        ]
      }
    },
    {
      "type": "Feature",
      "properties": {
        "ID": "16600",
        "名称": "滨江区新浦路西新生停车场核酸采样点",
        "详情地址": "滨江区浦沿街道新浦路501号",
        "联系电话": null,
        "状态": 1,
        "类型": "其他",
        "marker-color": "#F3AE1A",
        "marker-symbol": "cafe"
      },
      "geometry": {
        "type": "Point",
        "coordinates": [
          120.13772747640925,
          30.158778836923418
        ]
      }
    },
    {
      "type": "Feature",
      "properties": {
        "ID": "16598",
        "名称": "滨江区物联网核酸采样点",
        "详情地址": "滨江区西兴街道丹枫路399号物联网产业孵化器2号楼B座1层",
        "联系电话": null,
        "状态": 0,
        "类型": "其他",
        "marker-color": "#C24740",
        "marker-symbol": "cafe"
      },
      "geometry": {
        "type": "Point",
        "coordinates": [
          120.21426152153681,
          30.204972677006918
        ]
      }
    },
    {
      "type": "Feature",
      "properties": {
        "ID": "16594",
        "名称": "滨江区长河街道社区卫生服务中心",
        "详情地址": "滨江区长河街道长江中路23号",
        "联系电话": "4001111120",
        "状态": 1,
        "类型": "基层医疗机构",
        "marker-color": "#F3AE1A",
        "marker-symbol": "cafe"
      },
      "geometry": {
        "type": "Point",
        "coordinates": [
          120.18769446280842,
          30.166481801903807
        ]
      }
    },
    {
      "type": "Feature",
      "properties": {
        "ID": "16592",
        "名称": "德信AI产业园",
        "详情地址": "伟业路3号",
        "联系电话": "89997120",
        "状态": 1,
        "类型": "企事业单位",
        "marker-color": "#F3AE1A",
        "marker-symbol": "cafe"
      },
      "geometry": {
        "type": "Point",
        "coordinates": [
          120.15042570617986,
          30.175085804311657
        ]
      }
    },
    {
      "type": "Feature",
      "properties": {
        "ID": "16589",
        "名称": "临江花园北门公园处前空地",
        "详情地址": "临江花园北门公园前空地",
        "联系电话": "89997120",
        "状态": 1,
        "类型": "社区",
        "marker-color": "#F3AE1A",
        "marker-symbol": "cafe"
      },
      "geometry": {
        "type": "Point",
        "coordinates": [
          126.89985773073785,
          41.797533577396166
        ]
      }
    },
    {
      "type": "Feature",
      "properties": {
        "ID": "16587",
        "名称": "东方通信城采样点",
        "详情地址": "东信大道66号东方通信城A、B、C、D、E号楼门前",
        "联系电话": "86602345",
        "状态": 1,
        "类型": "企事业单位",
        "marker-color": "#F3AE1A",
        "marker-symbol": "cafe"
      },
      "geometry": {
        "type": "Point",
        "coordinates": [
          120.13721309976754,
          30.172764416583107
        ]
      }
    },
    {
      "type": "Feature",
      "properties": {
        "ID": "16586",
        "名称": "华为全球培训中心采样点",
        "详情地址": "六和路310号西门广场",
        "联系电话": "86602345",
        "状态": 1,
        "类型": "企事业单位",
        "marker-color": "#F3AE1A",
        "marker-symbol": "cafe"
      },
      "geometry": {
        "type": "Point",
        "coordinates": [
          120.135760311697,
          30.17648193030057
        ]
      }
    },
    {
      "type": "Feature",
      "properties": {
        "ID": "16581",
        "名称": "山秀景苑采样点",
        "详情地址": "山秀景苑7号楼",
        "联系电话": "85100717",
        "状态": 1,
        "类型": "社区",
        "marker-color": "#F3AE1A",
        "marker-symbol": "cafe"
      },
      "geometry": {
        "type": "Point",
        "coordinates": [
          120.17264984885605,
          30.157846079236403
        ]
      }
    },
    {
      "type": "Feature",
      "properties": {
        "ID": "16576",
        "名称": "大同公寓",
        "详情地址": "大同公寓生活馆停车场",
        "联系电话": "86619185",
        "状态": 1,
        "类型": "社区",
        "marker-color": "#F3AE1A",
        "marker-symbol": "cafe"
      },
      "geometry": {
        "type": "Point",
        "coordinates": [
          119.09288098592793,
          29.301069308084422
        ]
      }
    },
    {
      "type": "Feature",
      "properties": {
        "ID": "16569",
        "名称": "新浦社区文体广场",
        "详情地址": "新浦社区文体广场",
        "联系电话": "56680960",
        "状态": 1,
        "类型": "社区",
        "marker-color": "#F3AE1A",
        "marker-symbol": "cafe"
      },
      "geometry": {
        "type": "Point",
        "coordinates": [
          120.14551557349449,
          30.149009890447797
        ]
      }
    },
    {
      "type": "Feature",
      "properties": {
        "ID": "16563",
        "名称": "西浦过渡房生活馆",
        "详情地址": "西浦过渡房生活馆",
        "联系电话": "86630995",
        "状态": 1,
        "类型": "社区",
        "marker-color": "#F3AE1A",
        "marker-symbol": "cafe"
      },
      "geometry": {
        "type": "Point",
        "coordinates": [
          120.19735481852881,
          30.254035701331297
        ]
      }
    },
    {
      "type": "Feature",
      "properties": {
        "ID": "16558",
        "名称": "联庄二号馆",
        "详情地址": "联庄二号馆",
        "联系电话": "86697592",
        "状态": 1,
        "类型": "社区",
        "marker-color": "#F3AE1A",
        "marker-symbol": "cafe"
      },
      "geometry": {
        "type": "Point",
        "coordinates": [
          120.15693397562328,
          30.178825137944
        ]
      }
    },
    {
      "type": "Feature",
      "properties": {
        "ID": "16553",
        "名称": "恒生电子",
        "详情地址": "恒生电子",
        "联系电话": "87788353",
        "状态": 1,
        "类型": "企事业单位",
        "marker-color": "#F3AE1A",
        "marker-symbol": "cafe"
      },
      "geometry": {
        "type": "Point",
        "coordinates": [
          120.16797863223579,
          30.180809806208636
        ]
      }
    },
    {
      "type": "Feature",
      "properties": {
        "ID": "16551",
        "名称": "伟业路东侧",
        "详情地址": "伟业路东侧",
        "联系电话": "87788353",
        "状态": 1,
        "类型": "其他",
        "marker-color": "#F3AE1A",
        "marker-symbol": "cafe"
      },
      "geometry": {
        "type": "Point",
        "coordinates": [
          120.15257612746196,
          30.179323370955704
        ]
      }
    },
    {
      "type": "Feature",
      "properties": {
        "ID": "16548",
        "名称": "高新产业大楼",
        "详情地址": "高新产业大楼",
        "联系电话": "89997006",
        "状态": 1,
        "类型": "企事业单位",
        "marker-color": "#F3AE1A",
        "marker-symbol": "cafe"
      },
      "geometry": {
        "type": "Point",
        "coordinates": [
          120.16545229381244,
          30.182954558120628
        ]
      }
    },
    {
      "type": "Feature",
      "properties": {
        "ID": "16542",
        "名称": "水晶城南门",
        "详情地址": "水晶城南广场",
        "联系电话": "89997006",
        "状态": 1,
        "类型": "社区",
        "marker-color": "#F3AE1A",
        "marker-symbol": "cafe"
      },
      "geometry": {
        "type": "Point",
        "coordinates": [
          120.09262559204335,
          30.296260689715613
        ]
      }
    },
    {
      "type": "Feature",
      "properties": {
        "ID": "16541",
        "名称": "六合天寓小区",
        "详情地址": "六合天寓广场（东信大道1222号）",
        "联系电话": "87656771",
        "状态": 1,
        "类型": "社区",
        "marker-color": "#F3AE1A",
        "marker-symbol": "cafe"
      },
      "geometry": {
        "type": "Point",
        "coordinates": [
          120.14583437238979,
          30.180205450629064
        ]
      }
    },
    {
      "type": "Feature",
      "properties": {
        "ID": "16538",
        "名称": "滨文社区滨文苑东区和滨文社区长岛之春",
        "详情地址": "滨文苑东区长岛之春金牛广场处",
        "联系电话": "88071781",
        "状态": 1,
        "类型": "社区",
        "marker-color": "#F3AE1A",
        "marker-symbol": "cafe"
      },
      "geometry": {
        "type": "Point",
        "coordinates": [
          120.15505349342688,
          30.165019528539926
        ]
      }
    },
    {
      "type": "Feature",
      "properties": {
        "ID": "16535",
        "名称": "云杉郡南门商铺广场",
        "详情地址": "云杉郡南门商铺广场",
        "联系电话": "86632196",
        "状态": 1,
        "类型": "社区",
        "marker-color": "#F3AE1A",
        "marker-symbol": "cafe"
      },
      "geometry": {
        "type": "Point",
        "coordinates": [
          120.16202663765105,
          30.16996159193741
        ]
      }
    },
    {
      "type": "Feature",
      "properties": {
        "ID": "16533",
        "名称": "海山公园",
        "详情地址": "天马路58号海山公园6号楼",
        "联系电话": "87774506 87777021",
        "状态": 1,
        "类型": "重点公共场所",
        "marker-color": "#F3AE1A",
        "marker-symbol": "cafe"
      },
      "geometry": {
        "type": "Point",
        "coordinates": [
          120.1932816820043,
          30.14883996006178
        ]
      }
    },
    {
      "type": "Feature",
      "properties": {
        "ID": "16532",
        "名称": "恒生电子",
        "详情地址": "滨兴路1888号",
        "联系电话": "87178571",
        "状态": 1,
        "类型": "企事业单位",
        "marker-color": "#F3AE1A",
        "marker-symbol": "cafe"
      },
      "geometry": {
        "type": "Point",
        "coordinates": [
          120.17702646848666,
          30.1846148333005
        ]
      }
    },
    {
      "type": "Feature",
      "properties": {
        "ID": "16524",
        "名称": "阿里中心",
        "详情地址": "滨兴路1866号",
        "联系电话": "87795821",
        "状态": 1,
        "类型": "企事业单位",
        "marker-color": "#F3AE1A",
        "marker-symbol": "cafe"
      },
      "geometry": {
        "type": "Point",
        "coordinates": [
          120.18368321231966,
          30.18534626935802
        ]
      }
    },
    {
      "type": "Feature",
      "properties": {
        "ID": "16516",
        "名称": "和瑞",
        "详情地址": "长河路475",
        "联系电话": "87178293",
        "状态": 1,
        "类型": "企事业单位",
        "marker-color": "#F3AE1A",
        "marker-symbol": "cafe"
      },
      "geometry": {
        "type": "Point",
        "coordinates": [
          120.18892508008746,
          30.17956884994873
        ]
      }
    },
    {
      "type": "Feature",
      "properties": {
        "ID": "16514",
        "名称": "浙江中晟控股集团停车场",
        "详情地址": "楚天路266号",
        "联系电话": null,
        "状态": 1,
        "类型": "企事业单位",
        "marker-color": "#F3AE1A",
        "marker-symbol": "cafe"
      },
      "geometry": {
        "type": "Point",
        "coordinates": [
          120.20109468071423,
          30.16809815532618
        ]
      }
    },
    {
      "type": "Feature",
      "properties": {
        "ID": "16501",
        "名称": "最美广场",
        "详情地址": "闻涛社区最美广场",
        "联系电话": "86802775",
        "状态": 1,
        "类型": "社区",
        "marker-color": "#F3AE1A",
        "marker-symbol": "cafe"
      },
      "geometry": {
        "type": "Point",
        "coordinates": [
          120.1838107946458,
          30.197269823045353
        ]
      }
    },
    {
      "type": "Feature",
      "properties": {
        "ID": "16488",
        "名称": "正泰大厦",
        "详情地址": "月明路560号",
        "联系电话": null,
        "状态": 1,
        "类型": "企事业单位",
        "marker-color": "#F3AE1A",
        "marker-symbol": "cafe"
      },
      "geometry": {
        "type": "Point",
        "coordinates": [
          120.21558451233707,
          30.199885272262787
        ]
      }
    },
    {
      "type": "Feature",
      "properties": {
        "ID": "16486",
        "名称": "聚光中心",
        "详情地址": "阡陌路459号",
        "联系电话": null,
        "状态": 1,
        "类型": "企事业单位",
        "marker-color": "#F3AE1A",
        "marker-symbol": "cafe"
      },
      "geometry": {
        "type": "Point",
        "coordinates": [
          120.21610196347142,
          30.201174557140213
        ]
      }
    },
    {
      "type": "Feature",
      "properties": {
        "ID": "16484",
        "名称": "西兴工业园区",
        "详情地址": "创伟科技园（聚工路11号）",
        "联系电话": "86732218",
        "状态": 1,
        "类型": "企事业单位",
        "marker-color": "#F3AE1A",
        "marker-symbol": "cafe"
      },
      "geometry": {
        "type": "Point",
        "coordinates": [
          120.20689025798032,
          30.17346059686869
        ]
      }
    },
    {
      "type": "Feature",
      "properties": {
        "ID": "16466",
        "名称": "缤纷未来社区采样点",
        "详情地址": "缤纷东院北门（缤纷卫生服务站）",
        "联系电话": "86686286；  86683026； 87700111",
        "状态": 1,
        "类型": "社区",
        "marker-color": "#F3AE1A",
        "marker-symbol": "cafe"
      },
      "geometry": {
        "type": "Point",
        "coordinates": [
          120.21900446870883,
          30.211049809469973
        ]
      }
    },
    {
      "type": "Feature",
      "properties": {
        "ID": "16463",
        "名称": "共联社区采样点",
        "详情地址": "迎春东苑1幢",
        "联系电话": null,
        "状态": 1,
        "类型": "社区",
        "marker-color": "#F3AE1A",
        "marker-symbol": "cafe"
      },
      "geometry": {
        "type": "Point",
        "coordinates": [
          120.21493984657879,
          30.19244911558952
        ]
      }
    },
    {
      "type": "Feature",
      "properties": {
        "ID": "16462",
        "名称": "湘云雅苑采样点",
        "详情地址": "湘云雅苑6-1外围商铺",
        "联系电话": "81607159",
        "状态": 1,
        "类型": "社区",
        "marker-color": "#F3AE1A",
        "marker-symbol": "cafe"
      },
      "geometry": {
        "type": "Point",
        "coordinates": [
          120.22496226416244,
          30.19031905938303
        ]
      }
    },
    {
      "type": "Feature",
      "properties": {
        "ID": "16460",
        "名称": "西兴社区采样点",
        "详情地址": "滨安小区南门西侧",
        "联系电话": "86628116",
        "状态": 1,
        "类型": "社区",
        "marker-color": "#F3AE1A",
        "marker-symbol": "cafe"
      },
      "geometry": {
        "type": "Point",
        "coordinates": [
          120.21897513013408,
          30.179248311383198
        ]
      }
    },
    {
      "type": "Feature",
      "properties": {
        "ID": "16445",
        "名称": "龙湖名景台南苑",
        "详情地址": "小区大门广场",
        "联系电话": "88117033",
        "状态": 3,
        "类型": "社区",
        "marker-color": "#e2e2e2",
        "marker-symbol": "cafe"
      },
      "geometry": {
        "type": "Point",
        "coordinates": [
          120.20751105248327,
          30.33830937523089
        ]
      }
    },
    {
      "type": "Feature",
      "properties": {
        "ID": "16444",
        "名称": "保利罗兰香谷",
        "详情地址": "小区大门广场",
        "联系电话": "88117033",
        "状态": 3,
        "类型": "社区",
        "marker-color": "#e2e2e2",
        "marker-symbol": "cafe"
      },
      "geometry": {
        "type": "Point",
        "coordinates": [
          120.23059611349383,
          30.366522555613283
        ]
      }
    },
    {
      "type": "Feature",
      "properties": {
        "ID": "16435",
        "名称": "远洋香奈",
        "详情地址": "小区大门广场",
        "联系电话": "88117033",
        "状态": 3,
        "类型": "社区",
        "marker-color": "#e2e2e2",
        "marker-symbol": "cafe"
      },
      "geometry": {
        "type": "Point",
        "coordinates": [
          120.19693373792379,
          30.334494937442624
        ]
      }
    },
    {
      "type": "Feature",
      "properties": {
        "ID": "16434",
        "名称": "郡枫绿园",
        "详情地址": "小区大门广场",
        "联系电话": "88117033",
        "状态": 3,
        "类型": "社区",
        "marker-color": "#e2e2e2",
        "marker-symbol": "cafe"
      },
      "geometry": {
        "type": "Point",
        "coordinates": [
          120.21350536481498,
          30.336018084140516
        ]
      }
    },
    {
      "type": "Feature",
      "properties": {
        "ID": "16433",
        "名称": "玺之湾小区",
        "详情地址": "小区大门广场",
        "联系电话": "88117033",
        "状态": 3,
        "类型": "社区",
        "marker-color": "#e2e2e2",
        "marker-symbol": "cafe"
      },
      "geometry": {
        "type": "Point",
        "coordinates": [
          120.2220959632622,
          30.33902978328684
        ]
      }
    },
    {
      "type": "Feature",
      "properties": {
        "ID": "16432",
        "名称": "建塘家苑",
        "详情地址": "小区大门广场",
        "联系电话": "88117033",
        "状态": 3,
        "类型": "社区",
        "marker-color": "#e2e2e2",
        "marker-symbol": "cafe"
      },
      "geometry": {
        "type": "Point",
        "coordinates": [
          120.20329752528929,
          30.340783921364586
        ]
      }
    },
    {
      "type": "Feature",
      "properties": {
        "ID": "16430",
        "名称": "云锦城",
        "详情地址": "小区大门广场",
        "联系电话": "88117033",
        "状态": 3,
        "类型": "社区",
        "marker-color": "#e2e2e2",
        "marker-symbol": "cafe"
      },
      "geometry": {
        "type": "Point",
        "coordinates": [
          120.22469844915899,
          30.365699509388307
        ]
      }
    },
    {
      "type": "Feature",
      "properties": {
        "ID": "16429",
        "名称": "三义锦唐苑",
        "详情地址": "小区大门广场",
        "联系电话": "88117033",
        "状态": 3,
        "类型": "社区",
        "marker-color": "#e2e2e2",
        "marker-symbol": "cafe"
      },
      "geometry": {
        "type": "Point",
        "coordinates": [
          120.22650749148129,
          30.362683271888365
        ]
      }
    },
    {
      "type": "Feature",
      "properties": {
        "ID": "16426",
        "名称": "广大融景公寓",
        "详情地址": "小区大门广场",
        "联系电话": "88117033",
        "状态": 3,
        "类型": "社区",
        "marker-color": "#e2e2e2",
        "marker-symbol": "cafe"
      },
      "geometry": {
        "type": "Point",
        "coordinates": [
          120.21976120458932,
          30.351613174595307
        ]
      }
    },
    {
      "type": "Feature",
      "properties": {
        "ID": "16424",
        "名称": "广宇上东名筑",
        "详情地址": "小区大门广场",
        "联系电话": "88117033",
        "状态": 3,
        "类型": "社区",
        "marker-color": "#e2e2e2",
        "marker-symbol": "cafe"
      },
      "geometry": {
        "type": "Point",
        "coordinates": [
          120.21853729102392,
          30.354230880565098
        ]
      }
    },
    {
      "type": "Feature",
      "properties": {
        "ID": "16419",
        "名称": "辰秀嘉园",
        "详情地址": "小区大门广场",
        "联系电话": "88117033",
        "状态": 3,
        "类型": "社区",
        "marker-color": "#e2e2e2",
        "marker-symbol": "cafe"
      },
      "geometry": {
        "type": "Point",
        "coordinates": [
          120.23613457608444,
          30.3495522034949
        ]
      }
    },
    {
      "type": "Feature",
      "properties": {
        "ID": "16418",
        "名称": "美邻嘉苑",
        "详情地址": "小区大门广场",
        "联系电话": "88117033",
        "状态": 3,
        "类型": "社区",
        "marker-color": "#e2e2e2",
        "marker-symbol": "cafe"
      },
      "geometry": {
        "type": "Point",
        "coordinates": [
          120.23472553048846,
          30.344137195542093
        ]
      }
    },
    {
      "type": "Feature",
      "properties": {
        "ID": "16417",
        "名称": "联合新苑",
        "详情地址": "小区大门广场",
        "联系电话": "88117033",
        "状态": 3,
        "类型": "社区",
        "marker-color": "#e2e2e2",
        "marker-symbol": "cafe"
      },
      "geometry": {
        "type": "Point",
        "coordinates": [
          120.2335661097972,
          30.345967130171903
        ]
      }
    },
    {
      "type": "Feature",
      "properties": {
        "ID": "16416",
        "名称": "钱王祠停车场",
        "详情地址": "钱王祠停车场",
        "联系电话": null,
        "状态": 1,
        "类型": "重点公共场所",
        "marker-color": "#F3AE1A",
        "marker-symbol": "cafe"
      },
      "geometry": {
        "type": "Point",
        "coordinates": [
          120.15162434037278,
          30.23689830272983
        ]
      }
    },
    {
      "type": "Feature",
      "properties": {
        "ID": "16415",
        "名称": "平湖秋月停车场白苏二公祠",
        "详情地址": "平湖秋月停车场白苏二公祠",
        "联系电话": null,
        "状态": 1,
        "类型": "重点公共场所",
        "marker-color": "#F3AE1A",
        "marker-symbol": "cafe"
      },
      "geometry": {
        "type": "Point",
        "coordinates": [
          120.13839397902734,
          30.245911544791866
        ]
      }
    },
    {
      "type": "Feature",
      "properties": {
        "ID": "16413",
        "名称": "白杨街道闻潮社区卫生服务中心",
        "详情地址": "25号大街373号",
        "联系电话": "0571—86917072",
        "状态": 0,
        "类型": "基层医疗机构",
        "marker-color": "#C24740",
        "marker-symbol": "cafe"
      },
      "geometry": {
        "type": "Point",
        "coordinates": [
          120.37357435003625,
          30.284213318953313
        ]
      }
    },
    {
      "type": "Feature",
      "properties": {
        "ID": "16408",
        "名称": "白杨街道东区党群服务中心",
        "详情地址": "学正街59号",
        "联系电话": "85096071",
        "状态": 3,
        "类型": "社区",
        "marker-color": "#e2e2e2",
        "marker-symbol": "cafe"
      },
      "geometry": {
        "type": "Point",
        "coordinates": [
          120.3868708443998,
          30.299889621025315
        ]
      }
    },
    {
      "type": "Feature",
      "properties": {
        "ID": "16407",
        "名称": "西子阳光星城中间通道",
        "详情地址": "西子阳光星城中间通道",
        "联系电话": "86092210",
        "状态": 3,
        "类型": "社区",
        "marker-color": "#e2e2e2",
        "marker-symbol": "cafe"
      },
      "geometry": {
        "type": "Point",
        "coordinates": [
          120.34039039220549,
          30.300341078525083
        ]
      }
    },
    {
      "type": "Feature",
      "properties": {
        "ID": "16406",
        "名称": "江语海6幢",
        "详情地址": "江语海6幢",
        "联系电话": "86092230",
        "状态": 3,
        "类型": "社区",
        "marker-color": "#e2e2e2",
        "marker-symbol": "cafe"
      },
      "geometry": {
        "type": "Point",
        "coordinates": [
          120.38644392962084,
          30.299367433788024
        ]
      }
    },
    {
      "type": "Feature",
      "properties": {
        "ID": "16398",
        "名称": "保利东湾4期",
        "详情地址": "保利东湾4期",
        "联系电话": "88236761",
        "状态": 3,
        "类型": "社区",
        "marker-color": "#e2e2e2",
        "marker-symbol": "cafe"
      },
      "geometry": {
        "type": "Point",
        "coordinates": [
          120.36663373933912,
          30.266009020646198
        ]
      }
    },
    {
      "type": "Feature",
      "properties": {
        "ID": "16387",
        "名称": "梦琴湾小区",
        "详情地址": "梦琴湾小区",
        "联系电话": "88838637",
        "状态": 3,
        "类型": "社区",
        "marker-color": "#e2e2e2",
        "marker-symbol": "cafe"
      },
      "geometry": {
        "type": "Point",
        "coordinates": [
          120.3828683465887,
          30.29194292988454
        ]
      }
    },
    {
      "type": "Feature",
      "properties": {
        "ID": "16384",
        "名称": "天元公寓",
        "详情地址": "天元公寓",
        "联系电话": "86684206",
        "状态": 3,
        "类型": "社区",
        "marker-color": "#e2e2e2",
        "marker-symbol": "cafe"
      },
      "geometry": {
        "type": "Point",
        "coordinates": [
          120.38399830867517,
          30.160987693136825
        ]
      }
    },
    {
      "type": "Feature",
      "properties": {
        "ID": "16380",
        "名称": "福雷德小区三幢一楼社区阅览室",
        "详情地址": "福雷德小区三幢一楼社区阅览室",
        "联系电话": "86721415",
        "状态": 3,
        "类型": "社区",
        "marker-color": "#e2e2e2",
        "marker-symbol": "cafe"
      },
      "geometry": {
        "type": "Point",
        "coordinates": [
          120.34055071219147,
          30.31173145152189
        ]
      }
    },
    {
      "type": "Feature",
      "properties": {
        "ID": "16379",
        "名称": "清雅苑小区17幢文化家园一楼",
        "详情地址": "清雅苑小区17幢文化家园一楼",
        "联系电话": "86721415",
        "状态": 3,
        "类型": "社区",
        "marker-color": "#e2e2e2",
        "marker-symbol": "cafe"
      },
      "geometry": {
        "type": "Point",
        "coordinates": [
          120.35776712034456,
          30.30741278476275
        ]
      }
    },
    {
      "type": "Feature",
      "properties": {
        "ID": "16376",
        "名称": "景园小区北区105号小广场",
        "详情地址": "景园小区北区105号小广场",
        "联系电话": "86925216",
        "状态": 3,
        "类型": "社区",
        "marker-color": "#e2e2e2",
        "marker-symbol": "cafe"
      },
      "geometry": {
        "type": "Point",
        "coordinates": [
          120.33101677950874,
          30.30143224957682
        ]
      }
    },
    {
      "type": "Feature",
      "properties": {
        "ID": "16361",
        "名称": "呈瑞街公共采样点",
        "详情地址": "呈瑞街66号",
        "联系电话": "0571-89898036",
        "状态": 1,
        "类型": "其他",
        "marker-color": "#F3AE1A",
        "marker-symbol": "cafe"
      },
      "geometry": {
        "type": "Point",
        "coordinates": [
          120.32838929529542,
          30.326784379861444
        ]
      }
    },
    {
      "type": "Feature",
      "properties": {
        "ID": "16360",
        "名称": "恒大市场Ｃ馆２号门采样点",
        "详情地址": "下沙街道东城大厦2号楼",
        "联系电话": "0571-85258525",
        "状态": 1,
        "类型": "其他",
        "marker-color": "#F3AE1A",
        "marker-symbol": "cafe"
      },
      "geometry": {
        "type": "Point",
        "coordinates": [
          120.33195195921313,
          30.31849470290922
        ]
      }
    },
    {
      "type": "Feature",
      "properties": {
        "ID": "16357",
        "名称": "高沙卫生服务站",
        "详情地址": "文渊路133号",
        "联系电话": "0571-86937255",
        "状态": 3,
        "类型": "基层医疗机构",
        "marker-color": "#e2e2e2",
        "marker-symbol": "cafe"
      },
      "geometry": {
        "type": "Point",
        "coordinates": [
          120.33177625535099,
          30.307968646942395
        ]
      }
    },
    {
      "type": "Feature",
      "properties": {
        "ID": "16356",
        "名称": "群桥人力公寓采样点",
        "详情地址": "盛安路12号",
        "联系电话": "0571-86925752",
        "状态": 1,
        "类型": "其他",
        "marker-color": "#F3AE1A",
        "marker-symbol": "cafe"
      },
      "geometry": {
        "type": "Point",
        "coordinates": [
          120.32194255984095,
          30.289873708395437
        ]
      }
    },
    {
      "type": "Feature",
      "properties": {
        "ID": "16351",
        "名称": "松合卫生服务站",
        "详情地址": "学林街1704号",
        "联系电话": "0571-86937255",
        "状态": 3,
        "类型": "基层医疗机构",
        "marker-color": "#e2e2e2",
        "marker-symbol": "cafe"
      },
      "geometry": {
        "type": "Point",
        "coordinates": [
          120.30780378188238,
          30.309308001286258
        ]
      }
    },
    {
      "type": "Feature",
      "properties": {
        "ID": "16349",
        "名称": "头格卫生服务站",
        "详情地址": "七格路七格小区",
        "联系电话": "0571-86937255",
        "状态": 3,
        "类型": "基层医疗机构",
        "marker-color": "#e2e2e2",
        "marker-symbol": "cafe"
      },
      "geometry": {
        "type": "Point",
        "coordinates": [
          120.31115634328181,
          30.290089914077086
        ]
      }
    },
    {
      "type": "Feature",
      "properties": {
        "ID": "16348",
        "名称": "东方卫生服务站",
        "详情地址": "福城路水岚佳苑",
        "联系电话": "0571-86937255",
        "状态": 3,
        "类型": "基层医疗机构",
        "marker-color": "#e2e2e2",
        "marker-symbol": "cafe"
      },
      "geometry": {
        "type": "Point",
        "coordinates": [
          120.32951941742172,
          30.319209702945834
        ]
      }
    },
    {
      "type": "Feature",
      "properties": {
        "ID": "16336",
        "名称": "老九中停车场采样点",
        "详情地址": "老九中停车场采样点",
        "联系电话": "0571-82193621",
        "状态": 3,
        "类型": "社区",
        "marker-color": "#e2e2e2",
        "marker-symbol": "cafe"
      },
      "geometry": {
        "type": "Point",
        "coordinates": [
          120.27999966439327,
          30.435518754537277
        ]
      }
    },
    {
      "type": "Feature",
      "properties": {
        "ID": "16334",
        "名称": "义蓬名苑7号楼北",
        "详情地址": "义蓬名苑7号楼北",
        "联系电话": "0571-82984028",
        "状态": 3,
        "类型": "社区",
        "marker-color": "#e2e2e2",
        "marker-symbol": "cafe"
      },
      "geometry": {
        "type": "Point",
        "coordinates": [
          120.49311489279941,
          30.270266569570104
        ]
      }
    },
    {
      "type": "Feature",
      "properties": {
        "ID": "16332",
        "名称": "宝龙公寓",
        "详情地址": "宝龙公寓",
        "联系电话": "0571-82181247",
        "状态": 3,
        "类型": "社区",
        "marker-color": "#e2e2e2",
        "marker-symbol": "cafe"
      },
      "geometry": {
        "type": "Point",
        "coordinates": [
          120.3804160578924,
          30.30564533536379
        ]
      }
    },
    {
      "type": "Feature",
      "properties": {
        "ID": "16331",
        "名称": "龙润城",
        "详情地址": "龙润城",
        "联系电话": "0571-82181247",
        "状态": 3,
        "类型": "社区",
        "marker-color": "#e2e2e2",
        "marker-symbol": "cafe"
      },
      "geometry": {
        "type": "Point",
        "coordinates": [
          120.49112300597395,
          30.29821911587868
        ]
      }
    },
    {
      "type": "Feature",
      "properties": {
        "ID": "16330",
        "名称": "江与城",
        "详情地址": "江与城",
        "联系电话": "0571-82181247",
        "状态": 3,
        "类型": "社区",
        "marker-color": "#e2e2e2",
        "marker-symbol": "cafe"
      },
      "geometry": {
        "type": "Point",
        "coordinates": [
          120.48858981889106,
          30.302914696718915
        ]
      }
    },
    {
      "type": "Feature",
      "properties": {
        "ID": "16327",
        "名称": "东湖城东门采样点",
        "详情地址": "东湖城东门采样点",
        "联系电话": null,
        "状态": 0,
        "类型": "重点公共场所",
        "marker-color": "#C24740",
        "marker-symbol": "cafe"
      },
      "geometry": {
        "type": "Point",
        "coordinates": [
          120.27409926850831,
          30.419387669056352
        ]
      }
    },
    {
      "type": "Feature",
      "properties": {
        "ID": "16314",
        "名称": "后新庙村委会",
        "详情地址": "后新庙村委会",
        "联系电话": "82674559",
        "状态": 3,
        "类型": "社区",
        "marker-color": "#e2e2e2",
        "marker-symbol": "cafe"
      },
      "geometry": {
        "type": "Point",
        "coordinates": [
          120.49953076461846,
          30.252021038981162
        ]
      }
    },
    {
      "type": "Feature",
      "properties": {
        "ID": "16309",
        "名称": "萧山区义蓬街道南沙村委边篮球场",
        "详情地址": "萧山区义蓬街道南沙村委边篮球场",
        "联系电话": "0571-82906177",
        "状态": 3,
        "类型": "社区",
        "marker-color": "#e2e2e2",
        "marker-symbol": "cafe"
      },
      "geometry": {
        "type": "Point",
        "coordinates": [
          120.51720875456519,
          30.30602290816972
        ]
      }
    },
    {
      "type": "Feature",
      "properties": {
        "ID": "16302",
        "名称": "萧山区义蓬街道金星村文化长廊",
        "详情地址": "萧山区义蓬街道金星村文化长廊",
        "联系电话": "0571-82181414",
        "状态": 3,
        "类型": "社区",
        "marker-color": "#e2e2e2",
        "marker-symbol": "cafe"
      },
      "geometry": {
        "type": "Point",
        "coordinates": [
          120.48685337145763,
          30.276985818939277
        ]
      }
    },
    {
      "type": "Feature",
      "properties": {
        "ID": "16295",
        "名称": "琅琴湾小区",
        "详情地址": "琅琴湾小区中间广场",
        "联系电话": "82101530",
        "状态": 1,
        "类型": "社区",
        "marker-color": "#F3AE1A",
        "marker-symbol": "cafe"
      },
      "geometry": {
        "type": "Point",
        "coordinates": [
          120.4863062697439,
          30.31903267667009
        ]
      }
    },
    {
      "type": "Feature",
      "properties": {
        "ID": "16293",
        "名称": "文体中心",
        "详情地址": "河庄街道文体中心",
        "联系电话": "82174695",
        "状态": 1,
        "类型": "社区",
        "marker-color": "#F3AE1A",
        "marker-symbol": "cafe"
      },
      "geometry": {
        "type": "Point",
        "coordinates": [
          120.45087650932665,
          30.292102088247166
        ]
      }
    },
    {
      "type": "Feature",
      "properties": {
        "ID": "16291",
        "名称": "街道广场正中心",
        "详情地址": "街道广场正中心",
        "联系电话": "82174527",
        "状态": 1,
        "类型": "社区",
        "marker-color": "#F3AE1A",
        "marker-symbol": "cafe"
      },
      "geometry": {
        "type": "Point",
        "coordinates": [
          121.48326080010567,
          28.75563142099164
        ]
      }
    },
    {
      "type": "Feature",
      "properties": {
        "ID": "17289",
        "名称": "杭州江城骨科医院",
        "详情地址": "杭州市体育场路71号",
        "联系电话": "0571-28292333",
        "状态": 3,
        "类型": "社区",
        "marker-color": "#e2e2e2",
        "marker-symbol": "cafe"
      },
      "geometry": {
        "type": "Point",
        "coordinates": [
          120.17466903427459,
          30.26435739933642
        ]
      }
    },
    {
      "type": "Feature",
      "properties": {
        "ID": "17287",
        "名称": "浙江骨伤医院",
        "详情地址": "杭州市拱墅区石祥路287号",
        "联系电话": "0571-88290900",
        "状态": 1,
        "类型": "社区",
        "marker-color": "#F3AE1A",
        "marker-symbol": "cafe"
      },
      "geometry": {
        "type": "Point",
        "coordinates": [
          120.14584321095509,
          30.326008076089238
        ]
      }
    },
    {
      "type": "Feature",
      "properties": {
        "ID": "17283",
        "名称": "杭州市下城区中西医结合医院",
        "详情地址": "东新路沈家路25号",
        "联系电话": "0571-56061519",
        "状态": 1,
        "类型": "社区",
        "marker-color": "#F3AE1A",
        "marker-symbol": "cafe"
      },
      "geometry": {
        "type": "Point",
        "coordinates": [
          120.16978694682098,
          30.310717210440725
        ]
      }
    },
    {
      "type": "Feature",
      "properties": {
        "ID": "17268",
        "名称": "长庆街道十五家园社区采样点",
        "详情地址": "十五家园小公园（十五家园小区6幢前）",
        "联系电话": "0571-85285635",
        "状态": 1,
        "类型": "社区",
        "marker-color": "#F3AE1A",
        "marker-symbol": "cafe"
      },
      "geometry": {
        "type": "Point",
        "coordinates": [
          120.16769285328074,
          30.260929564963305
        ]
      }
    },
    {
      "type": "Feature",
      "properties": {
        "ID": "17265",
        "名称": "长庆街道王马社区采样点",
        "详情地址": "王马党服中心（双眼井巷）",
        "联系电话": "0571-86966810",
        "状态": 1,
        "类型": "社区",
        "marker-color": "#F3AE1A",
        "marker-symbol": "cafe"
      },
      "geometry": {
        "type": "Point",
        "coordinates": [
          120.17110451150356,
          30.25598973424494
        ]
      }
    },
    {
      "type": "Feature",
      "properties": {
        "ID": "17264",
        "名称": "祥符街道北软园区（园区上报）",
        "详情地址": "祥园路108号G座杭州北部软件园党群服务中心",
        "联系电话": "88956551",
        "状态": 1,
        "类型": "社区",
        "marker-color": "#F3AE1A",
        "marker-symbol": "cafe"
      },
      "geometry": {
        "type": "Point",
        "coordinates": [
          120.11361647800446,
          30.329454142975138
        ]
      }
    },
    {
      "type": "Feature",
      "properties": {
        "ID": "17262",
        "名称": "祥符街道映月社区常态化核酸采样点",
        "详情地址": "都市水乡水映苑西门外B公园",
        "联系电话": "88319303",
        "状态": 1,
        "类型": "社区",
        "marker-color": "#F3AE1A",
        "marker-symbol": "cafe"
      },
      "geometry": {
        "type": "Point",
        "coordinates": [
          120.08827865354242,
          30.32149708520622
        ]
      }
    },
    {
      "type": "Feature",
      "properties": {
        "ID": "17258",
        "名称": "祥符街道阮家桥社区常态化核酸采样点",
        "详情地址": "丰登街218号（阮家桥社区阳光老人家）",
        "联系电话": "88181598",
        "状态": 0,
        "类型": "社区",
        "marker-color": "#C24740",
        "marker-symbol": "cafe"
      },
      "geometry": {
        "type": "Point",
        "coordinates": [
          120.1056343642027,
          30.29268019469922
        ]
      }
    },
    {
      "type": "Feature",
      "properties": {
        "ID": "17254",
        "名称": "祥符街道勤丰社区常态化核酸采样点",
        "详情地址": "运河文化艺术中心广场",
        "联系电话": "0571-88091184",
        "状态": 1,
        "类型": "社区",
        "marker-color": "#F3AE1A",
        "marker-symbol": "cafe"
      },
      "geometry": {
        "type": "Point",
        "coordinates": [
          120.11897687671514,
          30.296414110205767
        ]
      }
    },
    {
      "type": "Feature",
      "properties": {
        "ID": "17252",
        "名称": "祥符街道北星社区常态化核酸采样点",
        "详情地址": "小河路698号运河郡广场",
        "联系电话": "0571-88389151 88382720",
        "状态": 0,
        "类型": "社区",
        "marker-color": "#C24740",
        "marker-symbol": "cafe"
      },
      "geometry": {
        "type": "Point",
        "coordinates": [
          120.12254061006297,
          30.322578204639616
        ]
      }
    },
    {
      "type": "Feature",
      "properties": {
        "ID": "17249",
        "名称": "祥符街道蓝孔雀社区常态化核酸采样点",
        "详情地址": "工发路与冬泽巷交叉口西北角公园",
        "联系电话": "0571-88137015",
        "状态": 0,
        "类型": "社区",
        "marker-color": "#C24740",
        "marker-symbol": "cafe"
      },
      "geometry": {
        "type": "Point",
        "coordinates": [
          120.09904483827081,
          30.312318961752176
        ]
      }
    },
    {
      "type": "Feature",
      "properties": {
        "ID": "17245",
        "名称": "大关街道德胜社区德胜公园采样点",
        "详情地址": "德胜公园",
        "联系电话": "88035434",
        "状态": 1,
        "类型": "社区",
        "marker-color": "#F3AE1A",
        "marker-symbol": "cafe"
      },
      "geometry": {
        "type": "Point",
        "coordinates": [
          120.15530812154599,
          30.291550182152182
        ]
      }
    },
    {
      "type": "Feature",
      "properties": {
        "ID": "17244",
        "名称": "大关街道香积社区大门口采样点",
        "详情地址": "香积社区大门口",
        "联系电话": "88326063",
        "状态": 1,
        "类型": "社区",
        "marker-color": "#F3AE1A",
        "marker-symbol": "cafe"
      },
      "geometry": {
        "type": "Point",
        "coordinates": [
          120.1502588911864,
          30.294466056460987
        ]
      }
    },
    {
      "type": "Feature",
      "properties": {
        "ID": "17235",
        "名称": "上塘街道未来社区",
        "详情地址": "东苑广场",
        "联系电话": "56578007",
        "状态": 1,
        "类型": "社区",
        "marker-color": "#F3AE1A",
        "marker-symbol": "cafe"
      },
      "geometry": {
        "type": "Point",
        "coordinates": [
          120.1411711423842,
          30.333677753128953
        ]
      }
    },
    {
      "type": "Feature",
      "properties": {
        "ID": "17227",
        "名称": "上塘街道善贤社区",
        "详情地址": "善贤社区文化家园",
        "联系电话": "88352527",
        "状态": 1,
        "类型": "社区",
        "marker-color": "#F3AE1A",
        "marker-symbol": "cafe"
      },
      "geometry": {
        "type": "Point",
        "coordinates": [
          120.15503113741907,
          30.311945423924875
        ]
      }
    },
    {
      "type": "Feature",
      "properties": {
        "ID": "17225",
        "名称": "东新街道万家星城社区售楼部",
        "详情地址": "东文街新北街交叉口",
        "联系电话": "85804806",
        "状态": 1,
        "类型": "社区",
        "marker-color": "#F3AE1A",
        "marker-symbol": "cafe"
      },
      "geometry": {
        "type": "Point",
        "coordinates": [
          120.16872825819793,
          30.31916456963832
        ]
      }
    },
    {
      "type": "Feature",
      "properties": {
        "ID": "17215",
        "名称": "东新街道三塘苑社区三塘中心公园",
        "详情地址": "茉莉花大酒店南侧中心公园",
        "联系电话": "0571-85358721",
        "状态": 1,
        "类型": "社区",
        "marker-color": "#F3AE1A",
        "marker-symbol": "cafe"
      },
      "geometry": {
        "type": "Point",
        "coordinates": [
          120.16523060885223,
          30.302797991589497
        ]
      }
    },
    {
      "type": "Feature",
      "properties": {
        "ID": "17210",
        "名称": "东新街道沁苑社区载歌巷1号小公园",
        "详情地址": "载歌巷1号",
        "联系电话": "85380357",
        "状态": 1,
        "类型": "社区",
        "marker-color": "#F3AE1A",
        "marker-symbol": "cafe"
      },
      "geometry": {
        "type": "Point",
        "coordinates": [
          120.16240255021334,
          30.30103215293744
        ]
      }
    },
    {
      "type": "Feature",
      "properties": {
        "ID": "17208",
        "名称": "米市巷街道大塘巷社区阳光老人家",
        "详情地址": "大塘新村二号门",
        "联系电话": "0571-56799611;56799612",
        "状态": 1,
        "类型": "社区",
        "marker-color": "#F3AE1A",
        "marker-symbol": "cafe"
      },
      "geometry": {
        "type": "Point",
        "coordinates": [
          120.14204672238434,
          30.286297954237252
        ]
      }
    },
    {
      "type": "Feature",
      "properties": {
        "ID": "17203",
        "名称": "米市巷街道米市社区米市社区新河坝桥",
        "详情地址": "米市新村10幢旁边",
        "联系电话": "0571-86903921 18969131737",
        "状态": 1,
        "类型": "社区",
        "marker-color": "#F3AE1A",
        "marker-symbol": "cafe"
      },
      "geometry": {
        "type": "Point",
        "coordinates": [
          120.14032925941687,
          30.281086722313148
        ]
      }
    },
    {
      "type": "Feature",
      "properties": {
        "ID": "17202",
        "名称": "拱宸桥街道桥西社区采样点",
        "详情地址": "登云桥下与桥西直街交叉口（连通港河游步道）",
        "联系电话": "0571-88095846；0571-88891230",
        "状态": 1,
        "类型": "社区",
        "marker-color": "#F3AE1A",
        "marker-symbol": "cafe"
      },
      "geometry": {
        "type": "Point",
        "coordinates": [
          120.13004163115559,
          30.3071503161816
        ]
      }
    },
    {
      "type": "Feature",
      "properties": {
        "ID": "17201",
        "名称": "拱宸桥街道文澜社区采样点",
        "详情地址": "通益路边上小公园内凉亭（风景街-桥弄街段）",
        "联系电话": "0571-85020228；0571-86921363",
        "状态": 0,
        "类型": "社区",
        "marker-color": "#C24740",
        "marker-symbol": "cafe"
      },
      "geometry": {
        "type": "Point",
        "coordinates": [
          120.13210201525412,
          30.312568626199187
        ]
      }
    },
    {
      "type": "Feature",
      "properties": {
        "ID": "17183",
        "名称": "康桥街道蒋家浜社区尚合府小区采样点",
        "详情地址": "尚合府小区内",
        "联系电话": null,
        "状态": 1,
        "类型": "社区",
        "marker-color": "#F3AE1A",
        "marker-symbol": "cafe"
      },
      "geometry": {
        "type": "Point",
        "coordinates": [
          120.13432131733978,
          30.362748144096912
        ]
      }
    },
    {
      "type": "Feature",
      "properties": {
        "ID": "17179",
        "名称": "湖墅街道仁和仓社区",
        "详情地址": "绿地二期10幢东南角",
        "联系电话": "85806252",
        "状态": 1,
        "类型": "社区",
        "marker-color": "#F3AE1A",
        "marker-symbol": "cafe"
      },
      "geometry": {
        "type": "Point",
        "coordinates": [
          120.13813953091083,
          30.29497291008105
        ]
      }
    },
    {
      "type": "Feature",
      "properties": {
        "ID": "17176",
        "名称": "湖墅街道仓基新村社区",
        "详情地址": "仓基新村霞湾桥下",
        "联系电话": "56313319",
        "状态": 1,
        "类型": "社区",
        "marker-color": "#F3AE1A",
        "marker-symbol": "cafe"
      },
      "geometry": {
        "type": "Point",
        "coordinates": [
          120.14292194417881,
          30.28692711865916
        ]
      }
    },
    {
      "type": "Feature",
      "properties": {
        "ID": "17174",
        "名称": "朝晖街道施家花园社区核酸采样点",
        "详情地址": "施家花园19幢前",
        "联系电话": "0571-85457492",
        "状态": 1,
        "类型": "社区",
        "marker-color": "#F3AE1A",
        "marker-symbol": "cafe"
      },
      "geometry": {
        "type": "Point",
        "coordinates": [
          120.16444252894968,
          30.271088321718437
        ]
      }
    },
    {
      "type": "Feature",
      "properties": {
        "ID": "17171",
        "名称": "朝晖街道大家苑社区核酸采样点",
        "详情地址": "中山北路600弄50号大家苑社区门口",
        "联系电话": "0571-85300933",
        "状态": 1,
        "类型": "社区",
        "marker-color": "#F3AE1A",
        "marker-symbol": "cafe"
      },
      "geometry": {
        "type": "Point",
        "coordinates": [
          120.16081055143553,
          30.2730966491897
        ]
      }
    },
    {
      "type": "Feature",
      "properties": {
        "ID": "17161",
        "名称": "半山街道石塘社区采样点",
        "详情地址": "拱墅区石塘路1号石塘社区门口空地",
        "联系电话": "0571-86837342",
        "状态": 1,
        "类型": "社区",
        "marker-color": "#F3AE1A",
        "marker-symbol": "cafe"
      },
      "geometry": {
        "type": "Point",
        "coordinates": [
          120.1825754736327,
          30.37818981015061
        ]
      }
    },
    {
      "type": "Feature",
      "properties": {
        "ID": "17151",
        "名称": "半山街道夏意苑小区采样点",
        "详情地址": "夏意苑6幢",
        "联系电话": "0571-86500335；0571-56053586",
        "状态": 1,
        "类型": "社区",
        "marker-color": "#F3AE1A",
        "marker-symbol": "cafe"
      },
      "geometry": {
        "type": "Point",
        "coordinates": [
          120.2064573178121,
          30.35471928210766
        ]
      }
    },
    {
      "type": "Feature",
      "properties": {
        "ID": "17139",
        "名称": "小河街道塘河社区采样点",
        "详情地址": "塘河北村10幢北侧（电影公园）",
        "联系电话": "86953326",
        "状态": 1,
        "类型": "社区",
        "marker-color": "#F3AE1A",
        "marker-symbol": "cafe"
      },
      "geometry": {
        "type": "Point",
        "coordinates": [
          120.12869315721196,
          30.29153190513762
        ]
      }
    },
    {
      "type": "Feature",
      "properties": {
        "ID": "17138",
        "名称": "小河街道董家新村社区采样点",
        "详情地址": "三宝新村12幢西侧",
        "联系电话": "88073926",
        "状态": 1,
        "类型": "社区",
        "marker-color": "#F3AE1A",
        "marker-symbol": "cafe"
      },
      "geometry": {
        "type": "Point",
        "coordinates": [
          120.13160085128337,
          30.293322032670165
        ]
      }
    },
    {
      "type": "Feature",
      "properties": {
        "ID": "17137",
        "名称": "小河街道娑婆桥社区采样点",
        "详情地址": "和睦路128-2北侧登高面",
        "联系电话": "85380992",
        "状态": 1,
        "类型": "社区",
        "marker-color": "#F3AE1A",
        "marker-symbol": "cafe"
      },
      "geometry": {
        "type": "Point",
        "coordinates": [
          120.13679020909544,
          30.29329716755049
        ]
      }
    },
    {
      "type": "Feature",
      "properties": {
        "ID": "17134",
        "名称": "小河街道长征桥社区采样点",
        "详情地址": "红旗广场",
        "联系电话": "88105260",
        "状态": 1,
        "类型": "社区",
        "marker-color": "#F3AE1A",
        "marker-symbol": "cafe"
      },
      "geometry": {
        "type": "Point",
        "coordinates": [
          120.11584778016913,
          30.315903280785548
        ]
      }
    },
    {
      "type": "Feature",
      "properties": {
        "ID": "17132",
        "名称": "小河街道大浒路社区采样点",
        "详情地址": "远洋公寓东区北2门外",
        "联系电话": "88333280",
        "状态": 1,
        "类型": "社区",
        "marker-color": "#F3AE1A",
        "marker-symbol": "cafe"
      },
      "geometry": {
        "type": "Point",
        "coordinates": [
          120.1378621034213,
          30.302673344965868
        ]
      }
    },
    {
      "type": "Feature",
      "properties": {
        "ID": "17130",
        "名称": "武林街道安吉社区",
        "详情地址": "孝丰路环城西路",
        "联系电话": "0571-85102013",
        "状态": 1,
        "类型": "社区",
        "marker-color": "#F3AE1A",
        "marker-symbol": "cafe"
      },
      "geometry": {
        "type": "Point",
        "coordinates": [
          120.15090392233249,
          30.259414275838648
        ]
      }
    },
    {
      "type": "Feature",
      "properties": {
        "ID": "17129",
        "名称": "武林街道长寿社区",
        "详情地址": "教场路与武林路9号交叉口",
        "联系电话": "0571-28994043",
        "状态": 1,
        "类型": "社区",
        "marker-color": "#F3AE1A",
        "marker-symbol": "cafe"
      },
      "geometry": {
        "type": "Point",
        "coordinates": [
          120.15545774311033,
          30.25742957807236
        ]
      }
    },
    {
      "type": "Feature",
      "properties": {
        "ID": "17128",
        "名称": "武林街道凤麟社区",
        "详情地址": "地铁A出口星巴克旁",
        "联系电话": "0571-28992026",
        "状态": 1,
        "类型": "社区",
        "marker-color": "#F3AE1A",
        "marker-symbol": "cafe"
      },
      "geometry": {
        "type": "Point",
        "coordinates": [
          120.15885790227458,
          30.257285497595976
        ]
      }
    },